     2.11           OBSERVATION DATA    M (MIXED)           RINEX VERSION / TYPE
teqc  2019Feb25                         20201215 15:20:58UTCPGM / RUN BY / DATE
SEPT                                                        MARKER NAME
Unknown                                                     MARKER NUMBER
Unknown             Unknown                                 OBSERVER / AGENCY
2003891             SEPT POLARXS        2.2-tst110427r31349 REC # / TYPE / VERS
Unknown             Unknown                                 ANT # / TYPE
        0.0000        0.0000        0.0000                  APPROX POSITION XYZ
        0.0000        0.0000        0.0000                  ANTENNA: DELTA H/E/N
     1     1                                                WAVELENGTH FACT L1/2
     6    C1    L1    L2    P2    P1    C2                  # / TYPES OF OBSERV
    15.0000                                                 INTERVAL
Linux2.6.32-573.12.1.el6.x86_64|x86_64|gcc|Win64-MinGW64|=+ COMMENT
teqc  2019Feb25                         20201215 15:17:37UTCCOMMENT
sbf2rin-13.2.0                          09-DEC-20 09:05     COMMENT
For GPS, L2 corresponds to the L2P carrier phase.           COMMENT
For GLONASS, L2 corresponds to the L2CA carrier phase.      COMMENT
Forced Modulo Decimation to 15 seconds                      COMMENT
    15                                                      LEAP SECONDS
  2011    11     1     2     0    0.0000000     GPS         TIME OF FIRST OBS
                                                            END OF HEADER
 11 11  1  2  0  0.0000000  0 21G02G29G05G27G12G21G25G09G10R13R14R24
                                R17R01R15R18R02R16S20S33S38
  22373438.906 8 117573415.497 8  91615775.516 5  22373440.124 5  22373438.383 5

  21896565.198 8 115067244.430 8  89662828.523 6  21896572.508 6  21896565.127 6
  21896572.171 7
  23015040.441 7 120945004.937 7  94242960.820 5  23015044.457 5  23015040.485 5
  23015045.654 6
  24001167.814 6 126126963.702 6  98280786.314 4  24001182.912 4  24001167.345 4

  20612184.068 8 108317989.682 8  84403742.386 6  20612186.428 6  20612183.984 6
  20612186.338 7
  23972095.598 6 125974223.706 6  98161762.745 3  23972102.542 3  23972094.847 3

  21200581.259 8 111409926.645 8  86813026.815 7  21200587.593 7  21200580.669 7
  21200587.685 7
  22017068.215 7 115700608.712 7  90156254.563 6  22017071.696 6  22017067.849 6

  25435493.492 5 133664427.674 5 104154111.816 1  25435495.937 1  25435492.728 1

  24229640.759 6 129384901.040 6

  20239403.333 8 107887536.637 8  83912626.939 7
  20239412.226 7
  23043675.785 7 123225068.720 7  95841873.990 6
  23043684.022 6
  20838860.851 7 111513072.985 7  86732323.516 5
  20838869.044 5
  23507111.596 7 125658991.709 7  97734799.349 6
  23507119.067 6
  20017742.040 8 106968781.992 8  83197990.445 8
  20017752.464 8
  22181979.162 7 118408966.766 7  92095927.132 7
  22181989.056 7
  22988477.483 7 122670963.889 7  95410819.295 6
  22988488.496 6
  23667144.220 5 126425622.886 5

  37213152.745 7 195556522.444 7

  38360567.450 7 201586106.862 7

  39221482.994 7 206110357.760 7

 11 11  1  2  0 15.0000000  0 21G02G29G14G05G27G12G21G25G09G10R13R14
                                R24R17R01R15R18R02S20S33S38
  22382023.657 8 117618530.040 8  91650929.694 5  22382025.264 5  22382023.121 5

  21894044.132 8 115053995.561 8  89652504.798 6  21894051.269 6  21894044.061 6
  21894050.958 7
  25559724.829 5 134317258.159 5

  23011113.583 7 120924368.330 7  94226880.367 5  23011117.290 5  23011113.645 5
  23011118.525 6
  24011926.185 7 126183497.746 7  98324838.678 4  24011941.015 4  24011925.716 4

  20610846.941 8 108310963.230 8  84398266.912 6  20610849.476 6  20610846.852 6
  20610849.504 7
  23961076.571 6 125916318.235 6  98116641.565 3  23961083.226 3  23961075.780 3

  21194697.475 8 111379007.150 8  86788933.489 7  21194703.908 7  21194696.881 7
  21194704.285 7
  22024814.645 7 115741317.449 7  90187975.699 4  22024817.203 4  22024814.279 4

  25437906.727 6 133677114.148 6 104163997.499 1  25437909.942 1  25437906.003 1

  24241673.668 6 129449155.106 6 100682768.460 5
  24241690.285 5
  20247404.616 8 107930186.827 8  83945798.946 7
  20247413.666 7
  23049958.913 7 123258665.003 7  95868004.407 6
  23049965.924 6
  20841549.042 8 111527456.864 8  86743511.177 6
  20841555.608 6
  23505655.360 7 125651207.885 7  97728745.277 6
  23505662.578 6
  20012365.664 8 106940052.144 8  83175645.063 7
  20012375.772 7
  22178622.419 7 118391052.373 7  92081993.933 6
  22178633.189 6
  22980777.760 7 122629873.950 7  95378860.587 7
  22980788.170 7
  37212726.134 7 195554284.418 7

  38360332.135 7 201584876.704 7

  39221094.477 7 206108314.745 7

 11 11  1  2  0 30.0000000  0 21G02G29G14G05G27G12G21G25G09G10R13R14
                                R24R17R01R15R18R02S20S33S38
  22390620.199 7 117663703.473 7  91686129.739 5  22390621.779 5  22390619.663 5

  21891528.782 8 115040778.088 8  89642205.526 6  21891535.833 6  21891528.706 6
  21891535.650 7
  25563304.952 5 134336066.470 5

  23007202.540 7 120903815.817 7  94210865.463 5  23007206.378 5  23007202.616 5
  23007207.762 6
  24022682.659 7 126240024.373 7  98368885.247 4  24022697.614 4  24022682.163 4

  20609526.529 8 108304025.751 8  84392861.536 7  20609529.225 7  20609526.440 7
  20609528.835 7
  23950065.367 6 125858452.955 6  98071552.009 3  23950071.949 3  23950064.598 3

  21188823.275 8 111348137.598 8  86764879.233 7  21188829.685 7  21188822.681 7
  21188830.128 7
  22032573.910 8 115782094.544 8  90219749.639 6  22032576.135 6  22032573.557 6

  25440340.706 5 133689898.792 5 104173959.615 1  25440342.406 1  25440339.919 1

  24253706.133 6 129513411.274 6 100732745.888 6
  24253724.135 6
  20255432.848 8 107972979.853 8  83979082.231 7
  20255441.646 7
  23056235.347 6 123292222.828 6  95894104.859 6
  23056241.695 6
  20844242.217 7 111541866.151 7  86754718.084 6
  20844248.944 6
  23504225.870 7 125643569.083 7  97722804.014 6
  23504234.208 6
  20007024.373 8 106911509.719 8  83153445.430 8
  20007034.408 8
  22175277.312 7 118373198.231 7  92068107.518 7
  22175288.160 7
  22973086.040 7 122588830.084 7  95346937.678 7
  22973096.389 7
  37212300.454 7 195552044.490 7

  38360099.195 7 201583644.757 7

  39220707.691 7 206106270.387 7

 11 11  1  2  0 45.0000000  0 21G02G29G14G05G27G12G21G25G09G10R13R14
                                R24R17R01R15R18R02S20S33S38
  22399227.521 8 117708935.434 8  91721375.408 5  22399229.281 5  22399226.980 5

  21889019.673 8 115027591.721 8  89631930.508 6  21889026.278 6  21889019.593 6
  21889026.262 7
  25566890.447 5 134354908.028 5

  23003307.259 7 120883347.524 7  94194916.185 5  23003311.402 5  23003307.339 5
  23003312.477 6
  24033437.665 7 126296543.199 7  98412925.745 4  24033452.944 4  24033437.156 4

  20608223.086 8 108297175.599 8  84387523.595 7  20608225.604 7  20608222.997 7
  20608225.784 7
  23939061.709 6 125800628.091 6  98026493.830 3  23939068.305 3  23939060.972 3

  21182959.102 8 111317316.404 8  86740861.906 6  21182964.740 6  21182958.503 6
  21182965.710 7
  22040346.991 7 115822937.406 7  90251575.658 5  22040348.521 5  22040346.643 5

  25442791.567 6 133702781.618 6 104183998.152 1  25442793.687 1  25442790.669 1

  24265737.623 5 129577668.491 5 100782723.923 6
  24265757.878 6
  20263487.551 8 108015913.255 8  84012473.824 7
  20263496.681 7
  23062503.167 6 123325741.768 6  95920175.169 6
  23062510.215 6
  20846939.932 7 111556301.999 7  86765945.937 6
  20846946.999 6
  23502823.880 6 125636075.481 6  97716975.676 6
  23502832.698 6
  20001718.215 7 106883154.944 7  83131391.774 7
  20001728.226 7
  22171944.138 7 118355404.273 7  92054267.863 6
  22171954.595 6
  22965402.152 7 122547832.689 7  95315050.955 7
  22965413.790 7
  37211872.327 7 195549805.628 7

  38359862.945 7 201582413.664 7

  39220314.590 7 206104226.768 7

 11 11  1  2  1  0.0000000  0 21G02G29G14G05G27G12G21G25G09G10R13R14
                                R24R17R01R15R18R02S20S33S38
  22407845.940 7 117754225.625 7  91756666.428 5  22407847.855 5  22407845.386 5

  21886516.638 8 115014436.530 8  89621679.774 6  21886522.518 6  21886516.567 6
  21886523.315 7
  25570483.200 5 134373782.516 5 104706889.414 1  25570492.482 1  25570482.467 1

  22999428.632 7 120862964.001 7  94179032.954 5  22999432.524 5  22999428.699 5
  22999433.485 6
  24044191.929 7 126353053.855 7  98456959.889 4  24044206.696 4  24044191.420 4

  20606936.678 8 108290413.270 8  84382253.919 6  20606938.537 6  20606936.594 6
  20606939.197 7
  23928065.449 6 125742843.801 6  97981467.289 3  23928071.906 3  23928064.689 3

  21177103.787 8 111286547.304 8  86716886.037 7  21177110.157 7  21177103.184 7
  21177110.506 7
  22048131.491 7 115863849.712 7  90283455.801 5  22048134.412 5  22048131.170 5

  25445261.603 5 133715762.521 5 104194113.249 1  25445264.057 1  25445260.647 1

  24277774.108 6 129641926.484 6 100832702.536 6
  24277790.189 6
  20271568.807 8 108058989.809 8  84045977.757 7
  20271578.215 7
  23068763.343 6 123359222.113 6  95946215.499 6
  23068771.300 6
  20849642.846 7 111570763.780 7  86777193.951 6
  20849649.053 6
  23501449.568 7 125628727.248 7  97711260.389 6
  23501458.199 6
  19996446.547 7 106854988.763 7  83109484.779 7
  19996457.311 7
  22168621.589 7 118337670.059 7  92040474.686 6
  22168631.853 6
  22957728.563 7 122506882.430 7  95283200.830 6
  22957738.969 6
  37211445.323 7 195547566.257 7

  38359629.563 7 201581182.667 7

  39219930.782 7 206102181.877 7

 11 11  1  2  1 15.0000000  0 21G02G29G14G05G27G12G21G25G09G10R13R14
                                R24R17R01R15R18R02S20S33S38
  22416475.235 7 117799573.598 7  91792002.493 5  22416477.286 5  22416474.690 5

  21884019.056 8 115001312.372 8  89611453.240 6  21884024.728 6  21884018.985 6
  21884025.452 7
  25574079.879 5 134392688.598 5 104721621.270 1  25574090.354 1  25574079.245 1

  22995565.708 7 120842665.468 7  94163215.946 5  22995569.780 5  22995565.779 5
  22995570.917 6
  24054943.964 7 126409555.961 7  98500987.357 4  24054958.802 4  24054943.446 4

  20605666.759 8 108283740.493 8  84377054.622 6  20605668.555 6  20605666.666 6
  20605669.354 7
  23917077.378 7 125685100.724 7  97936472.986 4  23917083.086 4  23917076.645 4

  21171258.228 8 111255827.952 8  86692948.678 6  21171264.400 6  21171257.620 6
  21171264.954 7
  22055929.721 7 115904829.171 7  90315388.226 5  22055932.510 5  22055929.395 5

  25447751.456 5 133728841.485 5 104204304.688 1  25447752.600 1  25447750.531 1

  24289805.418 6 129706184.931 6 100882681.684 6
  24289823.486 6
  20279676.765 8 108102207.001 8  84079590.622 7
  20279685.761 7
  23075017.404 6 123392663.707 6  95972225.601 6
  23075025.935 6
  20852350.615 7 111585250.478 7  86788461.129 6
  20852356.679 6
  23500102.117 7 125621524.816 7  97705658.465 6
  23500109.384 6
  19991211.197 8 106827011.116 8  83087724.430 7
  19991221.673 7
  22165311.149 7 118319995.707 7  92026728.140 7
  22165320.845 7
  22950062.742 7 122465979.787 7  95251387.782 6
  22950073.679 6
  37211020.541 7 195545326.463 7

  38359394.212 7 201579952.563 7

  39219540.928 7 206100138.168 7

 11 11  1  2  1 30.0000000  0 21G02G29G14G05G27G12G21G25G09G10R13R14
                                R24R17R01R15R18R02S20S33S38
  22425115.841 7 117844979.044 7  91827383.345 5  22425117.633 5  22425115.300 5

  21881527.271 8 114988218.867 8  89601250.567 6  21881533.042 6  21881527.195 6
  21881533.846 7
  25577682.822 4 134411625.869 4 104736377.068 1  25577694.375 1  25577682.259 1

  22991719.218 7 120822452.012 7  94147465.234 5  22991722.915 5  22991719.294 5
  22991724.442 6
  24065694.402 7 126466049.152 7  98545007.889 4  24065708.980 4  24065693.884 4

  20604413.661 8 108277157.767 8  84371925.679 6  20604416.206 6  20604413.563 6
  20604416.223 8
  23906096.743 6 125627398.432 6  97891510.157 3  23906102.659 3  23906096.015 3

  21165422.250 8 111225159.836 8  86669051.451 7  21165428.575 7  21165421.642 7
  21165429.074 7
  22063740.202 8 115945875.354 8  90347372.463 5  22063742.789 5  22063739.912 5

  25450258.244 5 133742018.532 5 104214572.560 1  25450260.049 1  25450257.261 1

  24301838.508 6 129770442.846 6 100932660.476 6
  24301855.598 6
  20287810.231 9 108145567.172 9  84113315.453 8
  20287819.373 8
  23081262.840 6 123426066.422 6  95998205.467 6
  23081270.480 6
  20855062.604 7 111599762.260 7  86799747.789 5
  20855069.082 5
  23498782.109 7 125614468.088 7  97700169.926 6
  23498789.892 6
  19986011.064 7 106799223.175 7  83066111.636 7
  19986021.845 7
  22162011.088 8 118302381.083 8  92013028.036 7
  22162021.027 7
  22942407.320 7 122425125.413 7  95219612.207 6
  22942417.459 6
  37210597.083 7 195543087.949 7

  38359160.829 7 201578722.560 7

  39219153.015 7 206098094.404 7

 11 11  1  2  1 45.0000000  0 20G02G29G05G27G12G21G25G09G10R13R14R24
                                R17R01R15R18R02S20S33S38
  22433767.181 7 117890441.563 7  91862808.663 5  22433769.042 5  22433766.654 5

  21879041.286 8 114975156.006 8  89591071.786 6  21879047.343 6  21879041.197 6
  21879047.593 7
  22987888.635 7 120802323.950 7  94131781.048 5  22987892.438 5  22987888.697 5
  22987893.906 6
  24076442.781 7 126522533.147 7  98589021.268 4  24076457.674 4  24076442.258 4

  20603177.456 8 108270660.924 8  84366862.853 6  20603179.525 6  20603177.363 6
  20603180.196 7
  23895123.848 6 125569737.416 6  97846579.574 3  23895130.155 3  23895123.151 3

  21159595.798 8 111194543.329 8  86645194.547 7  21159602.400 7  21159595.186 7
  21159602.875 7
  22071563.532 7 115986986.462 7  90379406.842 5  22071565.656 5  22071563.202 5

  25452784.248 5 133755293.760 5 104224916.889 1  25452785.975 1  25452783.166 1

  24313872.507 6 129834699.884 6 100982638.409 5
  24313888.199 5
  20295971.653 8 108189062.444 8  84147143.783 8
  20295980.704 8
  23087502.416 6 123459430.307 6  96024155.158 6
  23087510.003 6
  20857779.019 7 111614299.759 7  86811054.823 5
  20857785.482 5
  23497488.529 7 125607557.677 7  97694795.144 6
  23497496.906 6
  19980846.352 8 106771624.078 8  83044645.690 7
  19980856.834 7
  22158722.826 7 118284825.849 7  91999374.078 7
  22158732.232 7
  22934759.671 7 122384319.646 7  95187874.500 6
  22934770.675 6
  37210167.924 7 195540847.668 7

  38358923.341 7 201577493.269 7

  39218761.113 7 206096050.735 7

 11 11  1  2  2  0.0000000  0 20G02G29G05G27G12G21G25G09G10R13R14R24
                                R17R01R15R18R02S20S33S38
  22442429.171 7 117935960.773 7  91898278.149 5  22442431.205 5  22442428.639 5

  21876561.476 8 114962123.654 8  89580916.776 6  21876567.448 6  21876561.392 6
  21876567.635 7
  22984074.790 7 120782281.716 7  94116163.763 5  22984078.609 5  22984074.843 5
  22984079.832 6
  24087189.033 7 126579007.521 7  98633027.135 4  24087204.361 4  24087188.537 4

  20601958.432 8 108264254.723 8  84361871.058 6  20601960.480 6  20601958.330 6
  20601961.298 7
  23884159.236 6 125512118.269 6  97801681.652 2  23884165.741 2  23884158.539 2

  21153779.288 8 111163977.442 8  86621377.030 7  21153785.476 7  21153778.676 7
  21153786.529 7
  22079399.096 7 116028164.799 7  90411494.289 5  22079402.027 5  22079398.752 5

  25455329.160 5 133768666.845 5 104235337.490 1  25455330.632 1  25455328.092 1

  24325906.130 6 129898955.812 6 101032615.493 5
  24325921.308 5
  20304157.813 8 108232701.500 8  84181085.633 7
  20304166.719 7
  23093735.592 6 123492755.049 6  96050074.413 6
  23093741.598 6
  20860500.911 7 111628861.154 7  86822380.163 6
  20860507.537 6
  23496224.184 7 125600793.493 7  97689534.112 6
  23496230.438 6
  19975717.225 8 106744215.015 8  83023327.561 7
  19975727.399 7
  22155445.223 7 118267329.415 7  91985765.877 6
  22155455.255 6
  22927121.854 7 122343563.088 7  95156175.074 6
  22927132.052 6
  37209744.018 7 195538608.101 7

  38358690.455 7 201576263.071 7

  39218369.130 7 206094006.330 7

 11 11  1  2  2 15.0000000  0 21G02G29G05G27G12G21G25G09G10R13R14R24
                                R17R01R15R18R02R16S20S33S38
  22451102.120 7 117981536.405 7  91933791.612 5  22451103.756 5  22451101.606 5

  21874087.166 8 114949121.630 8  89570785.391 6  21874093.026 6  21874087.086 6
  21874093.623 7
  22980277.476 7 120762325.718 7  94100613.672 5  22980281.115 5  22980277.538 5
  22980282.003 6
  24097934.567 7 126635471.902 7  98677025.243 4  24097949.048 4  24097934.089 4

  20600756.232 8 108257937.762 8  84356948.739 7  20600758.589 7  20600756.125 7
  20600758.959 7
  23873202.790 6 125454541.610 6  97756817.101 3  23873209.484 3  23873202.097 3

  21147972.672 8 111133463.834 8  86597600.477 7  21147978.667 7  21147972.073 7
  21147979.287 7
  22087247.503 7 116069408.309 7  90443597.072 5  22087250.377 5  22087246.976 5

  25457891.808 6 133782137.864 6 104245834.459 1  25457893.941 1  25457890.632 1

  24337937.327 6 129963209.896 6 101082590.787 6
  24337955.422 6
  20312369.313 9 108276480.888 9  84215136.248 8
  20312379.038 8
  23099960.359 6 123526040.851 6  96075963.380 5
  23099965.485 5
  20863226.475 7 111643446.991 7  86833724.404 6
  20863232.931 6
  23494985.776 7 125594175.965 7  97684387.182 6
  23494992.879 6
  19970623.125 8 106716994.922 8  83002156.424 7
  19970633.850 7
  22152178.206 7 118249891.905 7  91972203.468 7
  22152188.254 7
  22919493.635 7 122302856.286 7  95124514.361 6
  22919504.144 6
  23564325.483 4 125876385.120 4

  37209318.118 7 195536368.660 7

  38358453.776 7 201575033.074 7

  39217983.533 7 206091962.048 7

 11 11  1  2  2 30.0000000  0 20G02G29G05G27G12G21G25G09G10R13R14R24
                                R17R01R15R18R02S20S33S38
  22459785.193 7 118027168.035 7  91969348.689 5  22459787.039 5  22459784.684 5

  21871618.712 8 114936149.949 8  89560677.660 6  21871624.320 6  21871618.632 6
  21871625.220 7
  22976496.692 7 120742456.199 7  94085130.938 5  22976499.884 5  22976496.759 5
  22976501.555 6
  24108677.123 7 126691925.956 7  98721015.284 3  24108691.862 3  24108676.663 3

  20599571.322 8 108251710.334 8  84352096.223 7  20599573.743 7  20599571.215 7
  20599573.781 7
  23862254.102 7 125397007.688 7  97711985.847 4  23862260.921 4  23862253.427 4

  21142175.897 9 111103001.828 9  86573863.785 7  21142182.000 7  21142175.312 7
  21142182.784 8
  22095108.042 8 116110716.728 8  90475785.476 6  22095111.262 6  22095107.296 6

  25460475.276 6 133795706.829 6 104256407.853 1  25460475.999 1  25460474.109 1

  24349969.333 6 130027462.143 6 101132564.834 7
  24349988.428 7
  20320608.509 8 108320395.508 8  84249292.035 7
  20320617.932 7
  23106177.221 6 123559287.275 6  96101821.704 5
  23106183.681 5
  20865956.061 7 111658057.279 7  86845087.935 6
  20865963.451 6
  23493774.873 7 125587705.228 7  97679354.388 6
  23493783.631 6
  19965564.573 8 106689965.028 8  82981133.217 7
  19965575.759 7
  22148921.881 8 118232513.150 8  91958686.813 7
  22148932.670 7
  22911874.883 7 122262199.797 7  95092892.742 6
  22911884.746 6
  37208895.304 7 195534128.515 7

  38358220.764 7 201573804.347 7

  39217595.754 7 206089918.182 7

 11 11  1  2  2 45.0000000  0 21G02G29G05G27G12G21G25G09G10R13R14R24
                                R17R01R15R18R02R16S20S33S38
  22468479.418 7 118072855.217 7  92004949.070 5  22468480.969 5  22468478.913 5

  21869155.685 8 114923208.350 8  89550593.369 6  21869161.614 6  21869155.609 6
  21869162.369 7
  22972731.932 7 120722673.237 7  94069715.665 5  22972735.189 5  22972732.003 5
  22972736.750 6
  24119418.119 7 126748369.373 7  98764997.025 3  24119432.623 3  24119417.654 3

  20598403.161 8 108245574.315 8  84347315.533 6  20598406.046 6  20598403.050 6
  20598405.789 7
  23851313.876 6 125339515.564 6  97667186.782 2  23851320.055 2  23851313.206 2

  21136388.864 8 111072592.168 8  86550168.233 7  21136395.179 7  21136388.283 7
  21136395.638 7
  22102981.466 7 116152088.139 7  90508025.363 5  22102984.327 5  22102980.747 5

  25463074.849 6 133809373.787 6 104267057.376 1  25463076.471 1  25463073.714 1

  24362002.699 6 130091712.273 6 101182537.120 6
  24362019.581 6
  20328873.141 8 108364449.502 8  84283556.031 7
  20328882.819 7
  23112386.936 6 123592494.474 6  96127649.549 5
  23112393.266 5
  20868691.416 7 111672690.910 7  86856469.475 6
  20868697.604 6
  23492592.616 7 125581381.459 7  97674435.891 6
  23492600.635 6
  19960542.457 8 106663126.236 8  82960258.619 7
  19960552.736 7
  22145676.971 8 118215192.671 8  91945215.461 8
  22145687.961 8
  22904264.909 7 122221594.091 7  95061310.602 6
  22904275.230 6
  23541601.238 5 125755020.785 5

  37208466.838 7 195531889.459 7

  38357987.113 7 201572575.744 7

  39217210.452 7 206087873.913 7

 11 11  1  2  3  0.0000000  0 21G02G31G29G05G27G12G21G25G09G10R13R14
                                R24R17R01R15R18R02S20S33S38
  22477183.837 7 118118597.788 7  92040592.603 5  22477185.577 5  22477183.346 5

  25069186.653 5 131739465.273 5

  21866699.096 8 114910296.896 8  89540532.556 6  21866704.806 6  21866699.034 6
  21866705.436 7
  22968984.079 7 120702977.358 7  94054368.261 5  22968987.317 5  22968984.177 5
  22968988.518 6
  24130156.653 7 126804801.713 7  98808970.161 4  24130171.905 4  24130156.206 4

  20597252.353 8 108239525.555 8  84342601.886 6  20597254.321 6  20597252.233 6
  20597255.184 7
  23840381.028 6 125282066.637 6  97622421.630 3  23840387.112 3  23840380.331 3

  21130611.862 8 111042234.553 8  86526513.111 6  21130617.937 6  21130611.286 6
  21130618.650 7
  22110867.386 7 116193524.683 7  90540312.888 4  22110870.159 4  22110866.828 4

  25465694.943 6 133823138.636 6 104277783.391 1  25465695.652 1  25465693.857 1

  24374033.363 6 130155959.433 6 101232507.322 6
  24374051.690 6
  20337163.566 8 108408641.556 8  84317928.536 7
  20337172.859 7
  23118590.215 6 123625662.431 6  96153446.788 5
  23118596.538 5
  20871430.231 7 111687348.343 7  86867869.598 6
  20871437.316 6
  23491435.762 7 125575204.975 7  97669632.006 6
  23491445.709 6
  19955555.059 7 106636478.033 7  82939532.292 7
  19955565.812 7
  22142443.356 7 118197930.718 7  91931789.592 7
  22142453.356 7
  22896665.758 7 122181039.784 7  95029768.455 6
  22896675.241 6
  37208038.166 7 195529649.211 7

  38357754.714 7 201571346.784 7

  39216818.492 7 206085830.073 7

 11 11  1  2  3 15.0000000  0 22G02G31G29G05G27G12G21G25G09G10R13R14
                                R24R17R01R15R18R02R16S20S33S38
  22485898.899 7 118164395.310 7  92076278.955 5  22485900.787 5  22485898.412 5

  25059784.612 5 131690054.280 5

  21864247.398 8 114897415.374 8  89530495.079 6  21864253.802 6  21864247.322 6
  21864254.058 7
  22965252.244 7 120683368.651 7  94039088.789 5  22965255.587 5  22965252.328 5
  22965256.857 6
  24140893.875 6 126861222.732 6  98852934.434 3  24140909.106 3  24140893.433 3

  20596118.511 8 108233569.170 8  84337961.034 7  20596120.778 7  20596118.391 7
  20596120.961 7
  23829457.372 6 125224661.084 6  97577690.274 3  23829462.934 3  23829456.666 3

  21124844.700 8 111011930.923 8  86502900.574 7  21124851.024 7  21124844.119 7
  21124851.377 7
  22118764.719 8 116235024.431 8  90572656.431 5  22118767.929 5  22118764.246 5

  25468332.632 6 133837001.365 6 104288585.571 1  25468333.547 1  25468331.452 1

  24386063.950 6 130220203.518 6 101282475.123 6
  24386082.027 6
  20345479.992 7 108452969.916 7  84352404.747 6
  20345489.427 6
  23124785.152 7 123658790.794 7  96179213.303 6
  23124792.191 6
  20874173.904 7 111702029.334 7  86879288.180 6
  20874181.785 6
  23490308.165 7 125569175.980 7  97664942.765 6
  23490317.613 6
  19950604.042 8 106610021.238 8  82918954.815 7
  19950614.550 7
  22139220.621 7 118180726.640 7  91918408.812 7
  22139230.793 7
  22889074.019 7 122140537.365 7  94998266.711 6
  22889085.428 6
                                  97715302.479 5
  23518941.152 5
  37207612.297 7 195527409.173 7

  38357520.043 7 201570117.761 7

  39216433.132 7 206083784.973 7

 11 11  1  2  3 30.0000000  0 22G02G31G29G05G27G12G21G25G09G10R13R14
                                R24R17R01R15R18R02R16S20S33S38
  22494623.983 7 118210247.449 7  92112007.875 5  22494626.229 5  22494623.496 5

  25050395.642 5 131640713.397 5 102577202.724 2  25050401.729 2  25050395.146 2

  21861801.996 8 114884563.677 8  89520480.831 6  21861808.419 6  21861801.920 6
  21861808.516 7
  22961537.311 7 120663847.333 7  94023877.398 5  22961540.759 5  22961537.395 5
  22961542.348 6
  24151628.525 6 126917632.012 6  98896889.576 3  24151643.540 3  24151628.114 3

  20595001.940 8 108227702.490 8  84333389.825 7  20595004.093 7  20595001.811 7
  20595004.310 7
  23818540.996 6 125167299.479 6  97532993.334 3  23818547.524 3  23818540.308 3

  21119088.087 8 110981678.954 8  86479327.749 6  21119093.662 6  21119087.515 6
  21119094.712 7
  22126674.336 8 116276588.037 8  90605043.410 5  22126677.604 5  22126673.786 5

  25470989.102 6 133850961.835 6 104299463.881 1  25470990.147 1  25470987.980 1

  24398094.560 6 130284444.207 6 101332440.535 6
  24398110.627 6
  20353822.197 8 108497434.217 8  84386988.091 7
  20353831.894 7
  23130972.586 6 123691879.765 6  96204949.233 6
  23130979.797 6
  20876921.742 7 111716733.434 7  86890724.714 6
  20876928.634 6
  23489209.327 7 125563294.706 7  97660368.413 6
  23489217.787 6
  19945689.051 8 106583756.378 8  82898526.610 7
  19945699.541 7
  22136008.865 7 118163581.040 7  91905073.556 7
  22136018.170 7
  22881494.531 7 122100087.268 7  94966805.633 7
  22881505.054 7
                                  97668280.130 5
  23507622.610 5
  37207186.751 7 195525168.767 7

  38357286.495 7 201568890.304 7

  39216042.576 7 206081740.757 7

 11 11  1  2  3 45.0000000  0 21G02G31G29G05G27G12G21G25G09G10R13R14
                                R24R17R01R15R18R02S20S33S38
  22503359.706 7 118256153.928 7  92147779.129 5  22503361.968 5  22503359.228 5

  25041019.060 6 131591443.084 6 102538810.205 2  25041025.908 2  25041018.591 2

  21859361.818 8 114871741.575 8  89510489.655 6  21859368.532 6  21859361.747 6
  21859368.206 7
  22957839.568 7 120644413.913 7  94008734.506 5  22957842.517 5  22957839.652 5
  22957844.338 6
  24162360.382 7 126974029.243 7  98940835.345 4  24162375.801 4  24162359.980 4

  20593902.980 8 108221926.127 8  84328888.628 6  20593904.830 6  20593902.855 6
  20593905.361 7
  23807633.858 6 125109981.084 6  97488329.862 3  23807639.891 3  23807633.188 3

  21113341.212 8 110951481.085 8  86455797.243 7  21113347.015 7  21113340.631 7
  21113348.049 7
  22134596.589 6 116318215.510 6  90637479.871 5  22134599.870 5  22134596.102 5

  25473664.619 6 133865020.084 6 104310418.400 1  25473665.358 1  25473663.448 1

  24410122.585 6 130348680.025 6 101382401.861 5
  24410139.625 5
  20362189.275 8 108542036.857 8  84421679.074 7
  20362198.690 7
  23137153.767 7 123724929.205 7  96230654.358 6
  23137158.910 6
  20879673.675 7 111731460.006 7  86902178.785 6
  20879680.194 6
  23488136.026 6 125557561.325 6  97655909.124 6
  23488144.002 6
  19940809.950 8 106557682.898 8  82878247.272 7
  19940819.918 7
  22132807.293 7 118146492.203 7  91891782.382 6
  22132817.524 6
  22873924.565 7 122059690.095 7  94935385.676 6
  22873934.547 6
  37206756.706 7 195522928.329 7

  38357049.602 7 201567660.562 7

  39215650.670 6 206079696.897 6

 11 11  1  2  4  0.0000000  0 22G02G31G29G05G27G12G21G25G09G10R13R14
                                R24R17R01R15R18R02R16S20S33S38
  22512105.763 7 118302114.118 7  92183592.232 5  22512107.800 5  22512105.298 5

  25031657.217 6 131542243.665 6 102500472.880 2  25031663.667 2  25031657.048 2
  25031664.139 4
  21856927.303 8 114858948.857 8  89500521.369 6  21856934.083 6  21856927.227 6
  21856934.008 7
  22954158.577 7 120625068.826 7  93993660.443 5  22954161.174 5  22954158.657 5
  22954163.011 6
  24173090.614 7 127030413.992 7  98984771.368 4  24173105.871 4  24173090.252 4

  20592821.030 8 108216240.965 8  84324458.812 6  20592822.907 6  20592820.905 6
  20592823.273 7
  23796735.047 6 125052706.884 6  97443700.905 3  23796740.767 3  23796734.390 3

  21107604.517 8 110921336.372 8  86432308.274 7  21107610.312 7  21107603.932 7
  21107610.946 7
  22142530.353 7 116359904.861 7  90669964.093 4  22142533.637 4  22142529.839 4

  25476357.891 6 133879175.947 6 104321448.981 2  25476359.211 2  25476356.729 2

  24422151.655 6 130412911.374 6 101432359.673 5
  24422169.172 5
  20370581.909 8 108586776.061 8  84456477.788 7
  20370591.570 7
  23143326.170 7 123757938.874 7  96256328.582 6
  23143333.042 6
  20882429.467 7 111746209.041 7  86913650.306 6
  20882436.968 6
  23487091.737 7 125551975.918 7  97651564.894 6
  23487099.661 6
  19935966.975 8 106531801.705 8  82858117.486 7
  19935977.285 7
  22129616.668 7 118129461.156 7  91878536.085 7
  22129626.486 7
  22866363.585 7 122019346.434 7  94904007.381 6
  22866373.458 6
  23485013.667 6 125452728.729 6  97574386.354 6
  23485023.888 6
  37206335.238 7 195520688.927 7

  38356821.442 7 201566433.443 7

  39215264.022 7 206077652.574 7

 11 11  1  2  4 15.0000000  0 22G02G31G29G05G27G12G21G25G09G10R13R14
                                R24R17R01R15R18R02R16S20S33S38
  22520861.975 7 118348127.640 7  92219446.895 5  22520863.635 5  22520861.528 5

  25022309.380 5 131493115.312 5 102462190.979 2  25022315.275 2  25022309.367 2
  25022315.576 5
  21854498.565 8 114846185.448 8  89490575.923 6  21854505.133 6  21854498.512 6
  21854504.925 7
  22950493.766 7 120605812.123 7  93978655.225 5  22950497.354 5  22950493.824 5
  22950497.865 6
  24183817.657 7 127086785.906 7  99028697.437 4  24183833.352 4  24183817.291 4

  20591756.082 8 108210647.196 8  84320100.461 6  20591758.205 6  20591755.962 6
  20591758.106 7
  23785843.866 6 124995477.513 6  97399107.111 3  23785849.840 3  23785843.218 3

  21101878.266 9 110891245.612 9  86408861.201 7  21101883.697 7  21101877.681 7
  21101884.515 8
  22150476.810 7 116401655.969 7  90702496.642 5  22150480.042 5  22150476.480 5

  25479070.608 6 133893429.358 6 104332555.550 2  25479071.706 2  25479069.500 2

  24434178.778 6 130477137.614 6 101482313.537 5
  24434197.033 5
  20379000.202 8
  20379010.323 7
  23149491.131 6 123790908.817 6  96281971.865 6
  23149498.828 6
  20885190.388 7 111760980.219 7  86925139.032 6
  20885196.540 6
  23486074.910 7 125546538.942 7  97647336.114 6
  23486081.769 6
  19931159.391 8 106506112.990 8  82838137.407 7
  19931169.548 7
  22126436.415 7 118112487.363 7  91865334.381 7
  22126446.376 7
  22858813.390 7 121979056.692 7  94872671.036 7
  22858823.385 7
  23473733.760 6 125392468.915 6  97527517.400 6
  23473742.842 6
  37205910.358 7 195518448.624 7

  38356584.128 7 201565205.749 7

  39214874.173 7 206075608.883 7

 11 11  1  2  4 30.0000000  0 22G02G31G29G05G27G12G21G25G09G10R13R14
                                R24R17R01R15R18R02R16S20S33S38
  22529628.243 7 118394194.278 7  92255342.965 5  22529629.987 5  22529627.810 5

  25012974.295 6 131444058.596 6 102423964.804 2  25012980.338 2  25012974.296 2
  25012981.463 5
  21852075.283 8 114833451.289 8  89480653.282 6  21852081.719 6  21852075.239 6
  21852081.400 7
  22946845.994 7 120586644.176 7  93963719.200 5  22946850.084 5  22946846.038 5
  22946850.987 6
  24194542.386 7 127143144.707 7  99072613.261 4  24194558.386 4  24194541.997 4

  20590709.361 8 108205143.218 8  84315811.178 6  20590710.629 6  20590709.254 6
  20590711.416 7
  23774962.097 7 124938292.805 7  97354547.954 4  23774967.319 4  23774961.489 4

  21096162.255 8 110861209.483 8  86385456.816 6  21096167.255 6  21096161.679 6
  21096167.712 6
  22158433.741 8 116443471.995 8  90735079.458 5  22158438.457 5  22158433.500 5

  25481801.147 5 133907780.363 5 104343738.148 2  25481802.750 2  25481800.079 2

  24446204.918 6 130541358.225 6 101532262.998 6
  24446222.212 6
  20387444.218 7 108676653.477 7  84526379.303 6
  20387454.622 6
  23155648.764 6 123823838.988 6  96307584.232 6
  23155658.017 6
  20887954.504 7 111775773.170 7  86936644.725 6
  20887960.894 6
  23485084.656 7 125541250.364 7  97643222.848 5
  23485093.270 5
  19926387.769 8 106480616.593 8  82818306.917 7
  19926398.166 7
  22123267.512 7 118095570.133 7  91852176.559 6
  22123277.338 6
  22851273.258 7 121938821.459 7  94841377.039 7
  22851283.557 7
  23462465.071 6 125332276.012 6  97480700.486 6
  23462474.924 6
  37205479.016 7 195516209.255 7

  38356350.379 7 201563978.059 7

  39214487.655 7 206073564.839 7

 11 11  1  2  4 45.0000000  0 22G02G31G29G05G27G12G21G25G09G10R13R14
                                R24R17R01R15R18R02R16S20S33S38
  22538404.532 7 118440313.633 7  92291280.110 5  22538406.494 5  22538404.121 5

  25003652.850 6 131395073.776 6 102385794.703 2  25003658.799 2  25003652.854 2
  25003659.389 5
  21849657.471 8 114820746.207 8  89470753.299 6  21849663.716 6  21849657.431 6
  21849663.974 7
  22943215.881 7 120567565.194 7  93948852.494 5  22943219.314 5  22943215.961 5
  22943220.066 6
  24205264.583 7 127199489.952 7  99116518.543 4  24205280.523 4  24205264.181 4

  20589679.082 8 108199731.911 8  84311594.902 6  20589681.025 6  20589678.975 6
  20589681.374 7
  23764088.747 7 124881152.268 7  97310022.880 3  23764093.750 3  23764088.139 3

  21090456.617 8 110831225.955 8  86362092.992 6  21090461.098 6  21090456.032 6
  21090462.641 7
  22166402.428 7 116485350.526 7  90767711.740 5  22166408.122 5  22166402.129 5

  25484550.900 5 133922229.056 5 104354996.875 1  25484552.176 1  25484549.796 1

  24458230.990 6 130605572.431 6 101582207.337 6
  24458248.329 6
  20395912.821 8 108721796.377 8  84561490.580 7
  20395923.016 7
  23161799.359 6 123856729.172 6  96333165.450 5
  23161808.406 5
  20890722.551 7 111790588.010 7  86948167.413 6
  20890729.207 6
  23484123.321 7 125536110.379 7  97639225.085 6
  23484131.459 6
  19921652.957 8 106455313.269 8  82798626.571 7
  19921663.254 7
  22120109.001 7 118078710.285 7  91839063.436 7
  22120119.337 7
  22843742.868 7 121898641.171 7  94810125.829 7
  22843753.506 7
  23451211.163 6 125272151.828 6

  37205055.602 7 195513970.149 7

  38356118.910 7 201562751.218 7

  39214097.318 7 206071519.981 7

 11 11  1  2  5  0.0000000  0 22G02G31G29G05G27G12G21G25G09G10R13R14
                                R24R17R01R15R18R02R16S20S33S38
  22547190.862 7 118486485.450 7  92327258.114 5  22547192.888 5  22547190.456 5

  24994344.401 6 131346161.258 6 102347680.918 2  24994351.027 2  24994344.388 2
  24994351.872 5
  21847245.289 8 114808070.218 8  89460875.972 6  21847251.298 6  21847245.240 6
  21847251.669 7
  22939601.946 7 120548575.596 7  93934055.421 5  22939605.667 5  22939602.022 5
  22939606.756 6
  24215983.405 7 127255821.391 7  99160413.066 3  24216000.232 3  24215982.999 3

  20588666.723 8 108194412.575 8  84307450.131 6  20588668.618 6  20588666.616 6
  20588668.885 7
  23753223.030 6 124824056.823 6  97265533.173 3  23753228.691 3  23753222.427 3

  21084761.146 8 110801298.179 8  86338773.004 7  21084766.232 7  21084760.561 7
  21084767.137 7
  22174383.561 7 116527291.216 7  90800392.287 6  22174388.605 6  22174383.248 6

  25487319.199 5 133936775.386 5 104366331.777 1  25487320.311 1  25487318.050 1

  24470254.229 6 130669780.326 6 101632146.722 5
  24470272.005 5
  20404406.332 9 108767075.232 9  84596708.460 9
  20404416.537 9
  23167943.733 6 123889579.544 6  96358715.739 5
  23167951.261 5
  20893495.528 7 111805423.658 7  86959706.244 6
  20893502.473 6
  23483189.908 7 125531119.426 7  97635343.251 6
  23483196.983 6
  19916953.764 8 106430203.528 8  82779096.805 7
  19916963.646 7
  22116961.016 7 118061907.062 7  91825994.419 7
  22116971.359 7
  22836224.053 7 121858516.639 7  94778917.954 7
  22836234.086 7
  23439967.705 5 125212095.169 5  97387237.847 5
  23439977.864 5
  37204627.677 7 195511730.134 7

  38355884.686 7 201561522.968 7

  39213713.514 7 206069475.428 7

 11 11  1  2  5 15.0000000  0 22G02G31G29G05G27G12G21G25G09G10R13R14
                                R24R17R01R15R18R02R16S20S33S38
  22555986.763 7 118532709.416 7  92363276.761 5  22555989.160 5  22555986.348 5

  24985051.292 6 131297321.348 6 102309623.752 3  24985057.309 3  24985051.300 3
  24985058.441 5
  21844838.834 8 114795423.083 8  89451021.122 6  21844844.282 6  21844838.785 6
  21844844.668 7
  22936005.478 7 120529675.562 7  93919328.135 5  22936009.221 5  22936005.567 5
  22936010.032 6
  24226701.140 7 127312138.683 7  99204296.556 4  24226717.625 4  24226700.738 4

  20587671.959 8 108189184.259 8  84303376.092 6  20587673.387 6  20587671.852 6
  20587674.053 7
  23742366.997 7 124767006.790 7  97221078.706 4  23742372.329 4  23742366.403 4

  21079076.603 8 110771425.809 8  86315495.990 6  21079081.731 6  21079076.013 6
  21079082.742 7
  22182376.446 7 116569289.649 7  90833118.120 5  22182380.888 5  22182376.120 5

  25490105.647 5 133951419.234 5 104377742.619 1  25490106.803 1  25490104.521 1

  24482277.079 6 130733981.494 6 101682080.745 6
  24482295.089 6
  20412925.358 7 108812483.171 7  84632025.684 7
  20412935.877 7
  23174079.716 6 123922389.835 6  96384234.875 5
  23174085.624 5
  20896271.657 7 111820280.314 7  86971261.459 6
  20896278.935 6
  23482283.863 7 125526277.561 7  97631577.367 6
  23482291.544 6
  19912291.025 8 106405287.582 8  82759717.782 7
  19912301.238 7
  22113823.788 7 118045159.677 7  91812968.788 7
  22113833.578 7
  22828715.020 7 121818448.275 7  94747753.726 7
  22828725.239 7
  23428737.217 5 125152107.261 5  97340580.641 6
  23428747.433 6
  37204202.126 7 195509490.257 7

  38355652.220 6 201560295.511 6

  39213319.117 7 206067430.588 7

 11 11  1  2  5 30.0000000  0 22G02G31G29G05G27G12G21G25G09G10R13R14
                                R24R17R01R15R18R02R16S20S33S38
  22564793.090 7 118578985.294 7  92399335.862 5  22564795.153 5  22564792.693 5

  24975770.435 6 131248554.405 6 102271623.440 3  24975777.499 3  24975770.470 3
  24975778.532 5
  21842437.192 8 114782804.813 8  89441188.774 6  21842442.712 6  21842437.143 6
  21842443.681 7
  22932425.900 7 120510865.450 7  93904670.942 5  22932430.076 5  22932425.971 5
  22932430.550 6
  24237414.835 7 127368441.527 7  99248168.787 4  24237431.874 4  24237414.429 4

  20586694.497 8 108184048.931 8  84299374.750 6  20586696.239 6  20586694.395 6
  20586696.717 7
  23731519.203 6 124710003.018 6  97176660.494 3  23731524.844 3  23731518.564 3

  21073402.455 8 110741608.225 8  86292261.867 7  21073407.479 7  21073401.888 7
  21073408.414 8
  22190380.905 7 116611351.383 7  90865894.027 3  22190385.638 3  22190380.642 3

  25492910.980 5 133966160.718 5 104389229.552 1  25492912.116 1  25492909.755 1

  24494298.367 6 130798175.580 6 101732009.445 6
  24494316.746 6
  20421468.055 8 108858027.667 8  84667450.274 7
  20421478.284 7
  23180207.148 6 123955160.385 6  96409723.111 6
  23180214.113 6
  20899052.595 7 111835158.079 7  86982833.093 6
  20899058.209 6
  23481406.130 7 125521585.316 7  97627927.852 6
  23481414.385 6
  19907664.359 8 106380565.264 8  82740489.339 7
  19907674.904 7
  22110697.125 7 118028469.275 7  91799987.540 7
  22110706.095 7
  22821215.900 7 121778436.580 7  94716633.670 6
  22821227.243 6
  23417521.745 6 125092188.459 6  97293977.110 6
  23417530.334 6
  37203776.607 7 195507250.345 7

  38355416.731 7 201559069.014 7

  39212928.807 6 206065386.169 6

 11 11  1  2  5 45.0000000  0 22G02G31G29G05G27G12G21G25G09G10R13R14
                                R24R17R01R15R18R02R16S20S33S38
  22573608.733 7 118625312.638 7  92435435.057 5  22573610.913 5  22573608.336 5

  24966504.782 6 131199860.792 6 102233680.277 3  24966511.675 3  24966504.804 3
  24966511.488 5
  21840041.416 8 114770215.215 8  89431378.762 6  21840046.794 6  21840041.358 6
  21840047.632 7
  22928863.833 7 120492145.757 7  93890084.188 5  22928868.093 5  22928863.891 5
  22928868.179 6
  24248126.523 7 127424729.585 7  99292029.478 4  24248143.422 4  24248126.085 4

  20585734.525 8 108179005.979 8  84295445.460 6  20585736.454 6  20585734.418 6
  20585736.894 7
  23720680.013 7 124653045.528 7  97132278.321 4  23720686.047 4  23720679.365 4

  21067738.793 8 110711845.649 8  86269070.159 7  21067743.771 7  21067738.217 7
  21067744.391 7
  22198396.491 6                                  22198400.619 4  22198396.228 4

  25495734.753 5 133980999.722 5 104400792.461 1  25495735.811 1  25495733.604 1

  24506318.410 6 130862362.280 6 101781932.502 5
  24506337.344 5
  20430037.633 8 108903700.857 8  84702975.115 7
  20430047.295 7
  23186327.445 6 123987890.713 6  96435180.008 5
  23186335.523 5
  20901835.385 7 111850056.441 7  86994420.750 6
  20901842.180 6
  23480556.172 7 125517042.534 7  97624394.606 6
  23480564.363 6
  19903074.562 8 106356037.422 8  82721412.134 7
  19903084.799 7
  22107580.641 7 118011834.968 7  91787049.900 7
  22107590.211 7
  22813728.881 7 121738482.092 7  94685558.056 6
  22813739.089 6
  23406316.010 5 125032339.113 5  97247427.430 6
  23406327.922 6
  37203349.620 7 195505010.001 7

  38355182.713 7 201557842.394 7

  39212542.087 7 206063342.377 7

 11 11  1  2  6  0.0000000  0 22G02G31G29G05G27G12G21G25G09G10R13R14
                                R24R17R01R15R18R02R16S20S33S38
  22582434.381 7 118671690.944 7  92471573.980 5  22582436.366 5  22582433.975 5

  24957252.361 6 131151240.707 6 102195794.381 3  24957260.143 3  24957252.392 3
  24957259.916 5
  21837650.973 8 114757654.136 8  89421590.977 6  21837656.408 6  21837650.911 6
  21837657.258 7
  22925318.634 7 120473516.565 7  93875567.967 5  22925322.642 5  22925318.674 5
  22925323.024 6
  24258834.943 6 127481002.326 6  99335878.265 4  24258852.060 4  24258834.470 4

  20584792.580 8 108174054.940 8  84291587.527 6  20584794.015 6  20584792.473 6
  20584794.674 7
  23709850.280 6 124596134.686 6  97087932.590 3  23709855.822 3  23709849.623 3

  21062085.646 8 110682139.461 8  86245922.664 6  21062090.706 6  21062085.088 6
  21062091.253 7
  22206423.490 7 116695654.026 7  90931607.135 5  22206427.467 5  22206423.088 5

  25498576.756 5 133995936.127 5 104412431.342 1  25498578.024 1  25498575.598 1

  24518338.089 6 130926541.197 6 101831849.681 5
  24518355.592 5
  20438630.894 7
  20438640.487 6
  23192440.285 6 124020580.808 6  96460605.599 5
  23192451.671 5
  20904624.178 7 111864975.048 7  87006024.153 6
  20904630.318 6
  23479734.555 6 125512649.538 6  97620977.826 6
  23479742.475 6
  19898521.235 8 106331704.266 8  82702486.386 7
  19898530.856 7
  22104474.240 7 117995255.920 7  91774155.253 7
  22104484.686 7
  22806252.448 7 121698585.440 7  94654527.361 7
  22806262.422 7
  23395124.466 5 124972560.259 5  97200940.847 6
  23395136.683 6
  37202922.553 7 195502768.937 7

  38354950.926 7 201556615.949 7

  39212149.877 7 206061297.801 7

 11 11  1  2  6 15.0000000  0 22G02G31G29G05G27G12G21G25G09G10R13R14
                                R24R17R01R15R18R02R16S20S33S38
  22591269.547 7 118718119.825 7  92507752.311 5  22591271.474 5  22591269.145 5

  24948015.044 6 131102694.547 6 102157966.087 3  24948022.039 3  24948015.061 3
  24948022.126 5
  21835266.427 8 114745121.437 8  89411825.309 6  21835271.356 6  21835266.351 6
  21835272.251 7
  22921790.748 7 120454978.156 7  93861122.481 5  22921794.483 5  22921790.788 5
  22921794.909 6
  24269540.902 6 127537259.563 6  99379714.935 4  24269557.415 4  24269540.411 4

  20583867.782 8 108169197.355 8  84287802.643 6  20583869.659 6  20583867.675 6
  20583869.702 7
  23699028.978 6 124539270.613 6  97043623.379 3  23699034.602 3  23699028.308 3

  21056443.781 8 110652487.610 8  86222816.562 6  21056448.198 6  21056443.227 6
  21056449.810 7
  22214461.924 7 116737895.362 7  90964525.039 4  22214466.040 4  22214461.531 4

  25501436.781 5 134010970.059 5 104424146.148 1  25501438.843 1  25501435.597 1

  24530355.247 6 130990711.906 6 101881760.602 5
  24530370.526 5
  20447248.732 8 108995446.000 8  84774331.375 8
  20447258.650 8
  23198546.978 6 124053230.595 6  96485999.977 5
  23198554.041 5
  20907415.332 7 111879913.856 7  87017643.250 6
  20907422.897 6
  23478940.317 7 125508406.378 7  97617677.606 6
  23478948.843 6
  19894004.074 8 106307565.896 8  82683712.114 7
  19894013.855 7
  22101378.994 7 117978732.646 7  91761303.913 7
  22101388.796 7
  22798786.417 7 121658747.089 7  94623542.053 6
  22798797.295 6
  23383946.935 6 124912851.876 6  97154501.030 6
  23383958.151 6
  37202497.843 7 195500526.912 7

  38354718.031 7 201555389.334 7

  39211764.700 7 206059253.183 7

 11 11  1  2  6 30.0000000  0 22G02G31G29G05G27G12G21G25G09G10R13R14
                                R24R17R01R15R18R02R16S20S33S38
  22600114.066 7 118764599.076 7  92543969.890 5  22600116.017 5  22600113.673 5

  24938791.048 6 131054222.538 6 102120195.578 3  24938798.253 3  24938791.088 3
  24938798.877 5
  21832886.800 8 114732617.000 8  89402081.656 6  21832891.626 6  21832886.724 6
  21832892.908 7
  22918280.624 7 120436530.690 7  93846747.861 5  22918283.910 5  22918280.659 5
  22918284.948 6
  24280243.447 7 127593500.957 7  99423539.291 4  24280259.483 4  24280242.942 4

  20582961.056 8 108164431.917 8  84284089.365 6  20582962.662 6  20582960.949 6
  20582962.911 7
  23688216.560 6 124482453.534 6  96999350.860 3  23688222.380 3  23688215.894 3

  21050811.953 8 110622894.081 8  86199756.900 7  21050817.061 7  21050811.399 7
  21050818.169 6
  22222511.041 6 116780196.605 6  90997488.198 3  22222515.533 3  22222510.661 3

  25504316.267 5 134026101.286 5 104435936.739 1  25504318.295 1  25504315.302 1

  24542369.771 6 131054873.352 6 101931664.336 5
  24542387.502 5
  20455891.200 8
  20455902.255 8
  23204644.343 6 124085840.085 6  96511362.922 5
  23204652.092 5
  20910210.961 7 111894872.057 7  87029277.426 6
  20910217.870 6
  23478174.206 6 125504313.433 6  97614494.252 6
  23478183.311 6
  19889523.057 8 106283622.651 8  82665089.621 7
  19889533.250 7
  22098294.094 7 117962264.563 7  91748495.534 7
  22098303.783 7
  22791331.167 7 121618967.359 7  94592602.403 6
  22791342.517 6
  23372782.615 6 124853214.477 6  97108103.363 5
  23372794.455 5
  37202071.702 7 195498285.129 7

  38354482.792 7 201554163.739 7

  39211372.986 7 206057210.038 7

 11 11  1  2  6 45.0000000  0 22G02G31G29G05G27G12G21G25G09G10R13R14
                                R24R17R01R15R18R02R16S20S33S38
  22608968.603 7 118811128.279 7  92580226.387 5  22608969.870 5  22608968.228 5

  24929581.422 6 131005825.277 6 102082483.321 3  24929588.718 3  24929581.475 3
  24929588.169 5
  21830512.739 8 114720140.692 8  89392359.910 6  21830517.391 6  21830512.659 6
  21830518.523 7
  22914787.437 7 120418174.630 7  93832444.470 5  22914791.247 5  22914787.477 5
  22914791.774 6
  24290942.641 7 127649726.113 7  99467351.012 4  24290958.712 4  24290942.109 4

  20582072.014 8 108159760.250 8  84280449.215 6  20582073.713 6  20582071.907 6
  20582074.168 7
  23677413.571 6 124425683.658 6  96955114.964 4  23677418.967 4  23677412.892 4

  21045191.393 8 110593356.602 8  86176740.486 6  21045196.468 6  21045190.835 6
  21045197.218 7
  22230571.573 7 116822556.984 7  91030496.010 5  22230576.000 5  22230571.198 5

  25507214.173 6 134041329.737 6 104447803.126 1  25507215.987 1  25507213.212 1

  24554382.501 6 131119025.597 6 101981560.884 6
  24554401.314 6
  20464558.972 7
  20464568.611 6
  23210735.014 6 124118409.215 6  96536694.464 5
  23210740.989 5
  20913009.544 8 111909849.656 8  87040926.723 6
  20913016.803 6
  23477437.274 6 125500370.738 6  97611427.712 6
  23477445.545 6
  19885078.963 8 106259875.125 8  82646619.353 7
  19885089.207 7
  22095219.285 7 117945851.573 7  91735730.005 7
  22095229.362 7
  22783888.517 7 121579247.267 7  94561709.022 6
  22783897.490 6
  23361632.080 6 124793648.979 6  97061774.650 6
  23361643.935 6
  37201647.296 7 195496042.463 7

  38354249.391 7 201552938.199 7

  39210989.151 7 206055165.164 7

 11 11  1  2  7  0.0000000  0 22G02G31G29G05G27G12G21G25G09G10R13R14
                                R24R17R01R15R18R02R16S20S33S38
  22617832.068 7 118857707.064 7  92616521.526 5  22617833.386 5  22617831.711 5

  24920385.557 6 130957502.906 6 102044829.418 3  24920393.260 3  24920385.535 3
  24920392.770 5
  21828143.842 8 114707692.402 8  89382659.998 6  21828148.701 6  21828143.762 6
  21828149.587 7
  22911311.690 7 120399909.836 7  93818212.196 5  22911315.924 5  22911311.730 5
  22911316.455 6
  24301639.203 7 127705934.667 7  99511149.780 4  24301654.735 4  24301638.671 4

  20581200.581 8 108155181.402 8  84276881.380 6  20581202.256 6  20581200.488 6
  20581202.844 7
  23666619.151 6 124368960.345 6  96910914.980 3  23666624.192 3  23666618.476 3

  21039581.677 8 110563876.118 8  86153768.588 6  21039586.621 6  21039581.123 6
  21039587.405 7
  22238643.928 7                                  22238648.383 6  22238643.437 6

  25510131.153 5 134056655.424 5 104459745.299 1  25510132.518 1  25510130.161 1

  24566394.680 6 131183167.840 6 102031449.605 5
  24566411.751 5
  20473248.090 7
  20473259.158 6
  23216818.981 6 124150938.004 6  96561994.647 6
  23216826.269 6
  20915812.275 8 111924846.666 8  87052591.080 6
  20915818.841 6
  23476727.548 6 125496578.508 6  97608478.208 6
  23476736.064 6
  19880671.320 8 106236322.644 8  82628300.793 7
  19880681.843 7
  22092154.989 7 117929493.490 7  91723007.170 7
  22092165.041 7
  22776456.022 7 121539586.918 7  94530862.170 6
  22776465.356 6
  23350494.293 5 124734155.564 5  97015502.005 6
  23350506.573 6
  37201219.348 7 195493800.552 7

  38354017.439 7 201551713.039 7

  39210602.937 7 206053121.395 7

 11 11  1  2  7 15.0000000  0 22G02G31G29G05G27G12G21G25G09G10R13R14
                                R24R17R01R15R18R02R16S20S33S38
  22626705.191 7 118904335.278 7  92652855.164 5  22626706.628 5  22626704.834 5

  24911204.698 6 130909255.726 6 102007234.087 3  24911212.018 3  24911204.658 3
  24911212.409 5
  21825780.322 8 114695272.076 8  89372981.896 6  21825785.332 6  21825780.255 6
  21825786.441 7
  22907853.584 7 120381737.066 7  93804051.620 5  22907857.893 5  22907853.624 5
  22907857.688 6
  24312331.909 6 127762126.336 6  99554935.408 4  24312347.534 4  24312331.351 4

  20580347.113 8 108150696.315 8  84273386.501 7  20580348.789 7  20580347.024 7
  20580349.096 7
  23655834.258 6 124312285.273 6  96866752.956 3  23655839.077 3  23655833.579 3

  21033982.546 9 110534453.548 9  86130842.152 7  21033987.904 7  21033981.988 7
  21033988.237 8
  22246727.257 6 116907446.738 6  91096642.276 4  22246731.230 4  22246726.645 4

  25513066.228 5 134072078.421 5 104471763.280 1  25513067.391 1  25513065.289 1

  24578404.448 6 131247299.923 6 102081330.332 6
  24578421.274 6
  20481964.928 7
  20481976.778 7
  23222894.700 6 124183426.281 6  96587263.332 5
  23222900.757 5
  20918618.405 8 111939862.787 8  87064270.318 6
  20918625.208 6
  23476046.592 6 125492936.982 6  97605645.970 6
  23476055.064 6
  19876300.423 8 106212966.747 8  82610135.097 7
  19876310.591 7
  22089101.311 7 117913190.538 7  91710327.185 7
  22089110.523 7
  22769035.089 7 121499987.023 7  94500062.353 6
  22769045.302 6
  23339371.753 5 124674734.836 5  96969285.952 6
  23339382.665 6
  37200790.233 7 195491557.828 7

  38353783.131 6 201550486.923 6

  39210211.116 7 206051075.593 7

 11 11  1  2  7 30.0000000  0 22G02G31G29G05G27G12G21G25G09G10R13R14
                                R24R17R01R15R18R02R16S20S33S38
  22635587.418 7 118951012.369 7  92689226.905 5  22635589.157 5  22635587.061 5

  24902037.935 6 130861084.094 6 101969697.641 3  24902045.187 3  24902037.882 3
  24902045.839 6
  21823421.806 8 114682879.523 8  89363325.445 6  21823427.271 6  21823421.739 6
  21823427.805 7
  22904412.745 7 120363656.690 7  93789963.027 5  22904417.369 5  22904412.785 5
  22904417.057 6
  24323021.126 6 127818300.847 6  99598707.657 3  24323037.171 3  24323020.594 3

  20579511.420 8 108146304.761 8  84269964.405 6  20579513.159 6  20579511.331 6
  20579513.550 8
  23645058.422 6 124255658.221 6  96822628.233 3  23645063.106 3  23645057.765 3

  21028394.726 8 110505087.316 8  86107959.082 6  21028399.793 6  21028394.168 6
  21028400.161 6
  22254821.409 5 116949982.930 5  91129787.194 4  22254826.432 4  22254820.712 4

  25516018.219 5 134087598.525 5 104483856.897 1  25516020.696 1  25516017.307 1

  24590412.635 5 131311421.613 5 102131203.092 6
  24590429.605 6
  20490705.610 8 109227091.408 8  84954502.778 7
  20490716.146 7
  23228961.626 6 124215873.990 6  96612500.443 5
  23228969.340 5
  20921428.137 8 111954897.208 8  87075963.791 6
  20921434.710 6
  23475394.003 6 125489446.580 6  97602931.189 6
  23475402.210 6
  19871966.443 8 106189806.427 8  82592121.537 7
  19871976.486 7
  22086057.059 7 117896942.246 7  91697689.676 7
  22086066.142 7
  22761626.327 7 121460448.088 7  94469309.900 6
  22761634.893 6
  23328261.772 6 124615387.096 6  96923126.629 6
  23328271.720 6
  37200365.917 7 195489314.412 7

  38353548.379 7 201549260.761 7

  39209818.324 7 206049030.533 7

 11 11  1  2  7 45.0000000  0 22G02G31G29G05G27G12G21G25G09G10R13R14
                                R24R17R01R15R18R02R16S20S33S38
  22644478.945 7 118997738.015 7  92725636.471 5  22644480.898 5  22644478.601 5

  24892885.980 7 130812988.400 7 101932220.346 4  24892893.189 4  24892885.927 4
  24892893.063 6
  21821068.599 8 114670514.674 8  89353690.587 6  21821074.420 6  21821068.528 6
  21821074.894 7
  22900990.005 7 120345668.797 7  93775946.517 5  22900994.239 5  22900990.049 5
  22900994.526 6
  24333707.901 6 127874457.691 6  99642466.164 3  24333723.258 3  24333707.410 3

  20578693.837 8 108142006.605 8  84266614.890 6  20578695.379 6  20578693.753 6
  20578695.661 7
  23634291.611 6 124199080.112 6  96778541.911 3  23634296.307 3  23634290.927 3

  21022817.100 8 110475781.149 8  86085123.620 7  21022823.125 7  21022816.537 7
  21022823.457 7
  22262926.272 7 116992574.531 7  91162975.875 5  22262931.230 5  22262925.740 5

  25518991.266 5 134103215.651 5 104496026.224 1  25518992.644 1  25518990.399 1

  24602418.348 6 131375532.092 6 102181067.004 6
  24602434.474 6
  20499469.229 7 109273811.250 7  84990841.290 7
  20499479.890 7
  23235021.784 6 124248281.108 6  96637706.004 5
  23235028.461 5
  20924240.811 8 111969949.886 8  87087671.474 6
  20924247.970 6
  23474769.365 6 125486107.091 6  97600333.821 6
  23474776.234 6
  19867669.183 8 106166842.773 8  82574260.952 7
  19867679.276 7
  22083023.132 7 117880748.228 7  91685094.367 7
  22083032.690 7
  22754227.730 7 121420970.625 7  94438605.294 6
  22754236.461 6
  23317164.861 6 124556113.154 6  96877019.833 7
  23317175.931 7
  37199936.632 7 195487071.586 7

  38353312.568 7 201548035.550 7

  39209432.839 7 206046986.549 7

 11 11  1  2  8  0.0000000  0 22G02G31G29G05G27G12G21G25G09G10R13R14
                                R24R17R01R15R18R02R16S20S33S38
  22653379.741 7 119044511.809 7  92762083.575 5  22653381.596 5  22653379.397 5

  24883748.526 6 130764968.909 6 101894802.435 4  24883755.620 4  24883748.486 4
  24883755.594 6
  21818720.874 8 114658177.315 8  89344077.126 6  21818726.831 6  21818720.803 6
  21818726.997 7
  22897584.526 7 120327773.696 7  93762002.298 5  22897588.866 5  22897584.566 5
  22897588.992 6
  24344390.312 6 127930596.581 6  99686210.683 3  24344406.559 3  24344389.892 3

  20577894.056 8 108137803.203 8  84263339.432 6  20577895.764 6  20577893.972 6
  20577895.993 7
  23623533.445 6 124142550.898 6  96734493.845 3  23623538.396 3  23623532.676 3

  21017251.342 8 110446530.869 8  86062331.072 6  21017256.613 6  21017250.792 6
  21017257.275 7
  22271041.728 8 117035223.616 8  91196208.984 5  22271047.068 5  22271041.277 5

  25521980.844 5 134118929.843 5 104508270.943 1  25521982.881 1  25521979.812 1

  24614420.951 5 131439631.623 5 102230922.495 5
  24614438.574 5
  20508256.292 7 109320655.863 7  85027275.188 7
  20508267.104 7
  23241075.365 6 124280647.604 6  96662879.878 5
  23241080.248 5
  20927057.097 7 111985020.697 7  87099393.253 6
  20927063.454 6
  23474172.810 7 125482918.927 7  97597854.136 6
  23474181.674 6
  19863408.762 8 106144075.952 8  82556553.448 7
  19863418.656 7
  22079999.098 7 117864608.136 7  91672541.100 7
  22080008.871 7
  22746840.787 7 121381555.125 7  94407948.911 6
  22746850.709 6
  23306082.117 5 124496912.879 5  96830975.098 5
  23306093.391 5
  37199509.722 7 195484828.290 7

  38353080.102 7 201546809.844 7

  39209042.636 7 206044942.452 7

 11 11  1  2  8 15.0000000  0 22G02G31G29G05G27G12G21G25G09G10R13R14
                                R24R17R01R15R18R02R16S20S33S38
  22662289.599 7 119091333.411 7  92798567.927 5  22662291.282 5  22662289.251 5

  24874625.408 7 130717026.014 7 101857444.199 4  24874632.213 4  24874625.386 4
  24874633.220 6
  21816378.728 8 114645867.362 8  89334485.008 6  21816384.354 6  21816378.657 6
  21816384.262 7
  22894197.464 7 120309971.634 7  93748130.594 5  22894201.531 5  22894197.513 5
  22894201.593 7
  24355069.782 6 127986717.163 6  99729940.913 3  24355085.992 3  24355069.389 3

  20577112.033 8 108133695.355 8  84260138.979 6  20577114.178 6  20577111.944 6
  20577113.618 7
  23612785.092 6 124086069.891 6  96690482.768 3  23612789.550 3  23612784.310 3

  21011696.486 9 110417339.463 9  86039584.298 7  21011701.574 7  21011695.932 7
  21011702.210 8
  22279169.060 6

  25524990.078 5 134134740.979 5 104520591.448 1  25524991.536 1  25524989.283 1

  24626423.550 5 131503719.310 5 102280769.095 6
  24626439.047 6
  20517068.756 8 109367621.931 8  85063805.348 7
  20517079.627 7
  23247121.045 6 124312973.346 6  96688022.149 5
  23247126.393 5
  20929876.561 7 112000109.732 7  87111129.204 6
  20929884.172 6
  23473604.588 7 125479882.173 7  97595492.190 6
  23473612.853 6
  19859185.134 8 106121506.088 8  82538999.141 7
  19859195.196 7
  22076985.517 7 117848521.814 7  91660029.584 7
  22076995.538 7
  22739466.847 7 121342202.278 7  94377341.208 7
  22739475.585 7
  23295012.558 5 124437787.228 5  96784988.564 6
  23295025.412 6
  37199081.644 7 195482586.150 7

  38352851.209 7 201545584.100 7

  39208653.131 7 206042896.892 7

 11 11  1  2  8 30.0000000  0 22G02G31G29G05G27G12G21G25G09G10R13R14
                                R24R17R01R15R18R02R16S20S33S38
  22671208.414 7 119138202.551 7  92835089.317 5  22671210.161 5  22671208.034 5

  24865516.846 7 130669159.979 7 101820145.871 4  24865523.782 4  24865516.811 4
  24865524.121 6
  21814041.366 8 114633584.720 8  89324914.175 6  21814046.889 6  21814041.295 6
  21814046.994 7
  22890827.074 7 120292262.640 7  93734331.418 5  22890831.761 5  22890827.132 5
  22890831.409 6
  24365745.720 6 128042819.082 6  99773656.617 3  24365762.156 3  24365745.363 3

  20576348.315 8 108129680.069 8  84257009.917 6  20576349.861 6  20576348.231 6
  20576350.214 7
  23602046.673 6 124029638.353 6  96646510.512 3  23602050.685 3  23602045.837 3

  21006153.154 8 110388206.101 8  86016882.458 6  21006157.777 6  21006152.604 6
  21006159.083 7
  22287305.226 7 117120688.612 7  91262818.795 5  22287312.027 5  22287304.815 5

  25528017.056 5 134150648.979 5 104532987.386 1  25528018.762 1  25528016.274 1

  24638422.053 6 131567794.668 6 102330605.941 5
  24638436.787 5
  20525903.717 7
  20525913.902 8
  23253157.839 6 124345258.272 6  96713132.664 6
  23253164.513 6
  20932699.962 8 112015216.206 8  87122878.704 6
  20932705.982 6
  23473065.183 7 125476997.056 7  97593248.224 6
  23473073.247 6
  19854998.300 8 106099133.377 8  82521598.178 7
  19855008.490 7
  22073982.164 7 117832489.139 7  91647559.736 7
  22073992.059 7
  22732102.238 7 121302912.451 7  94346782.550 7
  22732112.500 7
  23283959.511 6 124378736.632 6  96739060.264 5
  23283970.388 5
  37198655.897 7 195480342.436 7

  38352619.190 7 201544359.351 7

  39208265.437 7 206040852.687 7

 11 11  1  2  8 45.0000000  0 22G02G31G29G05G27G12G21G25G09G10R13R14
                                R24R17R01R15R18R02R16S20S33S38
  22680136.325 7 119185118.833 7  92871647.437 5  22680138.162 5  22680135.932 5

  24856423.085 6 130621371.096 6 101782907.671 4  24856429.919 4  24856423.059 4
  24856430.245 5
  21811709.205 8 114621329.133 8  89315364.442 6  21811714.665 6  21811709.134 6
  21811714.865 7
  22887474.872 7 120274647.496 7  93720605.350 5  22887479.645 5  22887474.925 5
  22887479.611 6
  24376418.485 6 128098902.095 6  99817357.546 3  24376434.877 3  24376418.155 3

  20575602.308 8 108125760.890 8  84253956.242 6  20575603.941 6  20575602.228 6
  20575604.108 7
  23591317.482 7 123973256.354 7  96602576.817 4  23591321.322 4  23591316.651 4

  21000620.521 8 110359132.628 8  85994227.853 7  21000625.459 7  21000619.971 7
  21000626.770 7
  22295453.770 7 117163504.891 7  91296183.030 5  22295458.868 5  22295453.355 5

  25531063.345 5 134166653.978 5 104545458.846 1  25531064.532 1  25531062.617 1

  24650419.577 5 131631856.879 5

  20534762.920 8 109461948.874 8  85137166.360 8
  20534773.172 8
  23259187.649 6 124377502.458 6  96738211.494 5
  23259194.539 5
  20935526.114 7 112030340.188 7  87134641.813 6
  20935532.220 6
  23472553.590 6 125474263.674 6  97591122.296 6
  23472560.895 6
  19850848.671 8 106076958.261 8  82504350.881 7
  19850858.686 7
  22070989.279 7 117816509.905 7  91635131.534 7
  22070998.546 7
  22724752.046 7 121263686.363 7  94316273.456 7
  22724762.067 7
  23272920.271 6 124319761.815 6

  37198228.365 7 195478099.085 7

  38352384.792 7 201543133.998 7

  39207877.403 7 206038809.112 7

 11 11  1  2  9  0.0000000  0 22G02G31G29G05G27G12G21G25G09G10R13R14
                                R24R17R01R15R18R02R16S20S33S38
  22689073.078 7 119232081.906 7  92908242.026 5  22689075.076 5  22689072.676 5

  24847343.976 7 130573659.825 7 101745729.942 4  24847351.068 4  24847343.980 4
  24847350.793 6
  21809382.129 8 114609100.765 8  89305835.913 6  21809387.856 6  21809382.058 6
  21809387.503 7
  22884140.434 7 120257126.205 7  93706952.434 5  22884145.290 5  22884140.483 5
  22884145.692 7
  24387087.197 6 128154965.701 6  99861043.365 3  24387103.543 3  24387086.898 3

  20574874.482 8 108121936.032 8  84250975.745 6  20574875.791 6  20574874.406 6
  20574876.360 7
  23580597.562 7 123916923.564 7  96558681.139 4  23580601.778 4  23580596.744 4

  20995099.335 8 110330118.553 8  85971619.438 6  20995104.217 6  20995098.790 6
  20995105.505 7
  22303611.901 7 117206374.457 7  91329579.823 5  22303616.520 5  22303611.606 5

  25534126.950 5 134182755.707 5 104558005.706 1  25534128.595 1  25534126.128 1

  24662413.391 5 131695905.760 5

  20543645.886 7 109509298.789 7  85173995.365 6
  20543656.193 6
  23265209.394 6 124409705.721 6  96763258.500 6
  23265216.951 6
  20938355.850 7 112045481.149 7  87146418.139 6
  20938362.933 6
  23472070.304 7 125471682.367 7  97589114.645 6
  23472079.403 6
  19846735.618 8 106054980.972 8  82487257.472 7
  19846745.679 7
  22068005.174 7 117800584.241 7  91622745.022 7
  22068015.027 7
  22717413.056 7 121224524.447 7  94285814.270 7
  22717422.948 7
  23261893.234 6 124260863.032 6

  37197802.957 7 195475855.870 7

  38352150.523 7 201541908.923 7

  39207488.425 7 206036764.091 7

 11 11  1  2  9 15.0000000  0 22G02G31G29G05G27G12G21G25G09G10R13R14
                                R24R17R01R15R18R02R16S20S33S38
  22698018.921 7 119279091.468 7  92944872.814 5  22698020.583 5  22698018.497 5

  24838279.835 7 130526026.544 7 101708613.002 4  24838286.709 4  24838279.839 4
  24838287.352 5
  21807059.949 8 114596899.375 8  89296328.406 6  21807066.145 6  21807059.882 6
  21807065.770 7
  22880824.454 7 120239699.028 7  93693372.851 5  22880828.889 5  22880824.512 5
  22880828.552 6
  24397752.115 6 128211009.772 6  99904713.978 4  24397768.456 4  24397751.829 4

  20574164.618 8 108118206.968 8  84248070.103 6  20574166.171 6  20574164.525 6
  20574166.432 7
  23569887.224 6 123860641.122 6  96514824.875 3  23569891.393 3  23569886.451 3

  20989589.507 8 110301163.800 8  85949057.288 7  20989594.221 7  20989588.962 7
  20989595.206 7
  22311781.175 6 117249301.723 6  91363030.472 5  22311785.356 5  22311781.059 5

  25537209.241 5 134198954.199 5 104570627.953 1  25537211.188 1  25537208.352 1

  24674404.348 6 131759941.643 6

  20552552.923 7 109556773.971 7  85210921.167 6
  20552563.042 6
  23271223.837 6 124441868.021 6  96788273.602 6
  23271231.430 6
  20941188.476 8 112060639.111 8  87158207.707 6
  20941195.551 6
  23471615.936 6 125469253.172 6  97587225.271 6
  23471624.132 6
  19842659.848 8 106033201.996 8  82470318.279 7
  19842670.486 7
  22065031.473 7 117784711.705 7  91610399.805 7
  22065041.773 7
  22710085.195 7 121185427.143 7  94255405.352 6
  22710096.091 6
  23250882.280 6 124202040.961 6  96601625.281 6
  23250891.415 6
  37197374.052 7 195473611.378 7

  38351915.781 7 201540684.213 7

  39207100.212 7 206034719.189 7

 11 11  1  2  9 30.0000000  0 22G02G31G29G05G27G12G21G25G09G10R13R14
                                R24R17R01R15R18R02R16S20S33S38
  22706973.267 7 119326147.156 7  92981539.562 5  22706974.574 5  22706972.834 5

  24829230.620 7 130478471.371 7 101671556.902 4  24829237.294 4  24829230.646 4
  24829238.783 5
  21804742.883 8 114584724.891 8  89286841.852 6  21804749.433 6  21804742.816 6
  21804748.852 7
  22877526.177 7 120222366.365 7  93679866.921 5  22877530.432 5  22877526.226 5
  22877530.504 6
  24408413.224 7 128267033.881 7  99948369.047 4  24408429.100 4  24408412.916 4

  20573473.011 8 108114573.046 8  84245238.535 6  20573474.635 6  20573472.922 6
  20573474.943 7
  23559186.432 6 123804409.239 6  96471008.106 3  23559190.840 3  23559185.708 3

  20984091.131 8 110272268.539 8  85926541.179 7  20984095.914 7  20984090.581 7
  20984096.870 7
  22319960.291 7 117292281.880 7  91396521.423 3  22319964.459 3  22319960.108 3

  25540310.221 5 134215249.396 5 104583325.610 1  25540312.057 1  25540309.211 1

  24686392.709 5 131823963.839 5

  20561480.743 7
  20561491.194 7
  23277231.206 6 124473989.637 6  96813257.096 5
  23277238.843 5
  20944023.507 7 112075813.676 7  87170010.178 6
  20944030.799 6
  23471189.334 7 125466976.324 7  97585454.428 6
  23471199.257 6
  19838621.934 8 106011621.475 8  82453533.444 7
  19838631.626 7
  22062068.046 7 117768891.766 7  91598095.469 7
  22062077.965 7
  22702771.601 7 121146395.268 7  94225047.290 6
  22702780.683 6
  23239884.716 6 124143296.214 6  96555935.031 5
  23239896.063 5
  37196951.430 7 195471368.533 7

  38351680.551 7 201539460.475 7

  39206710.345 7 206032674.229 7

 11 11  1  2  9 45.0000000  0 21G02G31G29G05G27G12G21G25G09G10R14R24
                                R17R01R15R18R02R16S20S33S38
  22715936.475 7 119373248.685 7  93018242.040 5  22715937.525 5  22715936.046 5

  24820196.100 7 130430994.839 7 101634562.094 4  24820203.002 4  24820196.113 4
  24820204.486 5
  21802430.992 8 114572577.107 8  89277376.109 6  21802437.631 6  21802430.925 6
  21802437.037 7
  22874246.087 7 120205128.499 7  93666434.859 5  22874250.260 5  22874246.136 5
  22874250.245 7
  24419070.367 6 128323037.715 6  99992008.335 4  24419086.228 4  24419070.050 4

  20572799.767 8 108111034.505 8  84242481.086 6  20572801.285 6  20572799.651 6
  20572801.903 7
  23548495.216 7 123748227.766 7  96427230.449 4  23548499.799 4  23548494.528 4

  20978604.296 8 110243433.500 8  85904072.000 7  20978609.175 7  20978603.742 7
  20978610.369 7
  22328150.383 7 117335318.371 7  91430056.196 4  22328155.103 4  22328150.079 4

  25543429.320 5 134231641.316 5 104596098.557 1  25543431.345 1  25543428.408 1

  20570435.529 8 109652103.267 8  85285070.678 7
  20570445.336 7
  23283229.610 6 124506070.208 6  96838208.640 6
  23283238.188 6
  20946862.447 7 112091004.392 7  87181825.196 6
  20946868.342 6
  23470792.902 6 125464852.042 6  97583802.217 6
  23470800.708 6
  19834620.518 8 105990239.673 8  82436903.173 7
  19834630.670 7
  22059113.786 7 117753124.538 7  91585832.204 7
  22059123.637 7
  22695468.871 7 121107429.123 7  94194740.365 6
  22695478.553 6
  23228902.911 6 124084629.027 6  96510304.979 6
  23228913.064 6
  37196522.548 7 195469124.304 7

  38351448.277 7 201538236.115 7

  39206322.722 7 206030630.361 7

 11 11  1  2 10  0.0000000  0 22G02G31G29G05G27G12G21G25G09G10R13R14
                                R24R17R01R15R18R02R16S20S33S38
  22724908.024 7 119420395.695 7  93054979.958 5  22724909.094 5  22724907.559 5

  24811176.583 7 130383597.032 7 101597628.633 4  24811183.565 4  24811176.591 4
  24811183.880 5
  21800124.429 8 114560455.925 8  89267931.082 6  21800130.623 6  21800124.358 6
  21800130.481 7
  22870983.870 7 120187985.609 7  93653076.809 5  22870988.310 5  22870983.923 5
  22870988.169 7
  24429724.316 7 128379020.985 7 100035631.576 4  24429739.757 4  24429724.017 4

  20572144.542 8 108107592.405 8  84239799.168 6  20572146.160 6  20572144.426 6
  20572146.389 7
  23537814.311 6 123692097.253 6  96383492.607 3  23537818.644 3  23537813.587 3

  20973129.031 8 110214658.841 8  85881649.824 6  20973133.767 6  20973128.481 6
  20973135.206 7
  22336350.002 8 117378409.390 8  91463633.662 6  22336355.134 6  22336349.672 6

  25546567.063 5 134248129.854 5 104608946.813 1  25546569.100 1  25546566.075 1

                                 102629377.630 5
  24710378.525 5
  20579410.775 7 109699956.278 7  85322287.655 6
  20579421.270 6
  23289220.484 6 124538109.706 6  96863128.289 5
  23289230.897 5
  20949704.107 7 112106211.325 7  87193652.836 6
  20949711.344 6
  23470423.993 6 125462880.438 6  97582268.725 6
  23470431.502 6
  19830656.220 8 105969056.108 8  82420427.089 7
  19830666.471 7
  22056169.307 7 117737409.962 7  91573609.764 7
  22056179.996 7
  22688179.107 7 121068529.371 7  94164485.088 6
  22688188.644 6
  23217932.765 5 124026039.767 5

  37196096.367 7 195466881.102 7

  38351218.548 7 201537013.249 7

  39205934.572 7 206028585.093 7

 11 11  1  2 10 15.0000000  0 22G02G31G29G05G27G12G21G25G09G10R13R14
                                R24R17R01R15R18R02R16S20S33S38
  22733888.264 7 119467587.723 7  93091752.968 5  22733889.480 5  22733887.795 5

  24802172.754 7 130336278.541 7 101560756.985 4  24802179.537 4  24802172.771 4
  24802179.445 5
  21797823.332 7 114548361.291 7  89258506.747 6  21797828.296 6  21797823.256 6
  21797829.572 7
  22867739.509 7 120170937.962 7  93639792.977 5  22867744.264 5  22867739.562 5
  22867744.024 6
  24440372.869 6 128434983.344 6 100079238.536 4  24440389.132 4  24440372.583 4

  20571507.805 8 108104246.066 8  84237191.753 7  20571509.227 7  20571507.698 7
  20571509.474 7
  23527142.375 6 123636018.856 6  96339795.726 2  23527147.153 2  23527141.633 2

  20967665.007 8 110185945.743 8  85859276.038 7  20967670.061 7  20967664.449 7
  20967670.960 7
  22344560.492 7 117421553.773 7  91497252.421 5  22344565.355 5  22344560.081 5

  25549722.754 5 134264715.048 5 104621870.320 1  25549725.095 1  25549721.820 1

  24722345.482 5 132015946.978 5 102679122.195 5
  24722359.804 5
  20588411.787 7 109747925.564 7  85359596.534 6
  20588421.980 6
  23295205.144 6 124570108.232 6  96888016.086 5
  23295213.046 5
  20952549.148 7 112121434.039 7  87205492.731 6
  20952555.585 6
  23470084.502 6 125461061.635 6  97580854.123 6
  23470092.604 6
  19826729.607 8 105948072.108 8  82404106.219 7
  19826739.416 7
  22053236.114 7 117721747.701 7  91561428.090 7
  22053246.387 7
  22680901.898 7 121029696.589 7  94134281.886 6
  22680911.775 6
  23206980.572 6 123967529.024 6  96419232.209 5
  23206992.233 5
  37195668.361 7 195464638.918 7

  38350986.314 7 201535789.496 7

  39205541.033 7 206026540.712 7

 11 11  1  2 10 30.0000000  0 22G02G31G29G05G27G12G21G25G09G10R13R14
                                R24R17R01R15R18R02R16S20S33S38
  22742877.274 7 119514824.477 7  93128560.803 5  22742878.483 5  22742876.814 5

  24793182.930 6 130289039.688 6 101523947.378 3  24793190.435 3  24793182.943 3
  24793190.615 5
  21795527.164 7 114536293.050 7  89249102.970 6  21795531.179 6  21795527.097 6
  21795533.438 7
  22864513.538 7 120153985.546 7  93626583.340 5  22864518.203 5  22864513.578 5
  22864518.225 6
  24451018.606 6 128490924.393 6 100122828.891 3  24451034.111 3  24451018.343 3

  20570889.303 8 108100995.277 8  84234658.434 6  20570890.565 6  20570889.201 6
  20570891.521 7
  23516479.966 7 123579992.207 7  96296139.231 5  23516484.886 5  23516479.188 5

  20962212.814 9 110157293.386 9  85836949.384 7  20962217.776 7  20962212.251 7
  20962218.877 8
  22352780.590 7 117464751.140 7  91530912.624 4  22352785.789 4  22352780.197 4

  25552897.354 5 134281396.842 5 104634869.205 1  25552899.617 1  25552896.407 1

  24734322.025 5 132079910.658 5 102728872.027 5
  24734338.357 5
  20597434.118 7 109796022.612 7  85397004.796 7
  20597443.927 7
  23301182.915 6 124602065.554 6  96912871.828 5
  23301189.922 5
  20955396.949 7 112136672.572 7  87217344.981 6
  20955402.879 6
  23469772.825 6 125459395.995 6  97579558.662 6
  23469780.782 6
  19822839.654 8 105927286.994 8  82387940.048 7
  19822849.737 7
  22050311.719 7 117706137.627 7  91549287.036 7
  22050321.584 7
  22673636.688 7 120990931.143 7  94104131.052 6
  22673647.006 6
  23196042.703 7 123909098.377 7  96373790.356 7
  23196053.726 7
  37195246.052 7 195462395.667 7

  38350747.820 7 201534564.920 7

  39205152.177 7 206024496.655 7

 11 11  1  2 10 45.0000000  0 21G02G31G29G05G27G12G21G25G09G10R14R24
                                R17R01R15R18R02R16S20S33S38
  22751874.614 7 119562105.707 7  93165403.289 4  22751875.535 4  22751874.158 4

  24784209.299 7 130241880.762 7 101487200.081 3  24784216.291 3  24784209.316 3
  24784216.098 5
  21793235.463 8 114524250.992 8  89239719.610 6  21793239.450 6  21793235.401 6
  21793241.259 7
  22861305.810 7 120137129.250 7  93613448.591 5  22861310.596 5  22861305.872 5
  22861310.760 7
  24461659.441 6 128546843.734 6 100166402.346 3  24461674.941 3  24461659.151 3

  20570288.982 8 108097841.780 8  84232201.344 6  20570290.433 6  20570288.875 6
  20570290.948 7
  23505827.909 7 123524016.202 7  96252521.634 4  23505832.269 4  23505827.122 4

  20956772.257 8 110128701.584 8  85814669.583 6  20956777.099 6  20956771.690 6
  20956778.764 7
  22361011.049 7 117508003.111 7  91564615.617 4  22361016.660 4  22361010.611 4

  25556089.842 4 134298174.975 4 104647943.080 1  25556092.360 1  25556088.836 1

  20606479.569 8 109844241.181 8  85434509.561 6
  20606489.962 6
  23307151.115 6 124633981.826 6  96937695.577 6
  23307157.959 6
  20958247.023 7 112151926.725 7  87229209.315 6
  20958254.148 6
  23469489.367 7 125457883.377 7  97578382.167 6
  23469497.062 6
  19818986.903 8 105906701.827 8  82371929.374 7
  19818997.078 7
  22047397.362 7 117690579.220 7  91537186.149 7
  22047406.878 7
  22666385.496 7 120952233.494 7  94074033.009 7
  22666394.960 7
                                  96328406.692 5
  23185130.281 5
  37194813.999 7 195460152.979 7

  38350518.189 6 201533342.143 6

  39204765.283 7 206022450.938 7

 11 11  1  2 11  0.0000000  0 21G02G31G29G05G27G12G21G25G09G10R14R24
                                R17R01R15R18R02R16S20S33S38
  22760880.297 7 119609430.954 7  93202280.106 4  22760881.111 4  22760879.837 4

  24775250.038 6 130194802.073 6 101450515.280 3  24775257.570 3  24775250.069 3
  24775257.899 5
  21790948.766 7 114512234.951 7  89230356.526 6  21790952.904 6  21790948.699 6
  21790954.827 7
  22858116.552 7 120120369.096 7  93600388.751 5  22858121.493 5  22858116.610 5
  22858120.918 7
  24472296.439 6 128602741.080 6 100209958.641 3  24472311.062 3  24472296.185 3

  20569707.289 8 108094784.259 8  84229818.849 7  20569708.518 7  20569707.187 7
  20569708.914 8
  23495186.586 6 123468091.858 6  96208944.203 3  23495190.259 3  23495185.795 3

  20951343.123 9 110100171.923 9  85792438.545 7  20951348.227 7  20951342.551 7
  20951349.524 7
  22369251.054 8 117551306.387 8  91598366.932 5  22369256.939 5  22369250.625 5

  25559302.480 5 134315049.386 5 104661091.956 1  25559303.369 1  25559301.559 1

  20615548.127 8 109892582.018 8  85472108.640 5
  20615557.929 5
  23313111.907 6 124665856.785 6  96962487.219 6
  23313116.977 6
  20961100.653 7 112167195.996 7  87241085.448 6
  20961108.509 6
  23469235.170 6 125456524.083 6  97577324.998 6
  23469242.907 6
  19815171.941 8 105886316.075 8  82356073.815 7
  19815182.031 7
  22044491.977 7 117675072.207 7  91525125.193 7
  22044501.539 7
  22659145.707 7 120913604.319 7  94043988.174 6
  22659155.196 6
  23174210.754 7 123792471.568 7  96283077.351 7
  23174220.371 7
  37194392.370 7 195457910.011 7

  38350284.055 6 201532119.659 6

  39204373.676 7 206020406.739 7

 11 11  1  2 11 15.0000000  0 21G02G31G29G05G27G12G21G25G09G10R14R24
                                R17R01R15R18R02R16S20S33S38
  22769894.286 7 119656799.850 7  93239190.932 5  22769895.267 5  22769893.808 5

  24766306.812 6 130147803.819 6 101413893.176 3  24766314.115 3  24766306.852 3
  24766313.952 5
  21788666.907 8 114500244.815 8  89221013.619 6  21788671.585 6  21788666.867 6
  21788672.673 7
  22854945.495 7 120103705.248 7  93587403.973 5  22854950.424 5  22854945.562 5
  22854950.057 7
  24482928.855 6 128658616.112 6 100253497.558 3  24482943.999 3  24482928.596 3

  20569143.937 8 108091823.041 8  84227511.008 6  20569145.161 6  20569143.835 6
  20569145.793 7
  23484554.324 7 123412220.617 7  96165408.529 3  23484558.073 3  23484553.537 3

  20945926.284 8 110071704.368 8  85770255.740 6  20945931.331 6  20945925.663 6
  20945932.335 6
  22377501.179 7 117594662.515 7  91632152.164 5  22377507.150 5  22377500.580 5

  25562530.692 5 134332020.047 5 104674316.077 1  25562532.717 1  25562529.722 1

  20624638.327 9 109941046.722 9  85509804.916 8
  20624647.407 8
  23319065.730 6 124697690.459 6  96987246.709 5
  23319070.966 5
  20963956.798 7 112182479.826 7  87252972.902 6
  20963964.123 6
  23469009.582 6 125455318.179 6  97576387.054 6
  23469016.730 6
  19811394.559 8 105866130.246 8  82340373.737 7
  19811404.757 7
  22041596.372 7 117659616.365 7  91513104.123 7
  22041606.330 7
  22651919.970 7 120875044.191 7  94013996.997 6
  22651929.743 6
  23163316.997 7 123734280.057 7  96237817.326 6
  23163326.290 6
  37193959.991 7 195455666.944 7

  38350051.468 7 201530895.410 7

  39203989.586 7 206018362.658 7

 11 11  1  2 11 30.0000000  0 21G02G31G29G05G27G12G21G25G09G10R14R24
                                R17R01R15R18R02R16S20S33S38
  22778916.356 7 119704211.973 7  93276135.417 5  22778917.709 5  22778915.878 5

  24757378.714 6 130100886.318 6 101377333.965 3  24757385.800 3  24757378.772 3
  24757386.325 5
  21786389.976 7 114488280.573 7  89211690.878 6  21786395.462 6  21786389.927 6
  21786395.678 7
  22851792.822 7 120087137.837 7  93574494.326 5  22851797.362 5  22851792.889 5
  22851797.256 7
  24493558.051 6 128714468.502 6 100297018.825 3  24493572.688 3  24493557.859 3

  20568599.051 8 108088958.985 8  84225279.250 6  20568600.267 6  20568598.953 6
  20568600.639 7
  23473932.447 6 123356401.856 6  96121913.292 4  23473935.475 4  23473931.674 4

  20940520.700 8 110043298.826 8  85748121.671 6  20940525.720 6  20940520.074 6
  20940527.220 7
  22385761.942 7 117638068.183 7  91665973.848 5  22385766.845 5  22385761.491 5

  25565777.534 5 134349087.050 5 104687614.973 1  25565780.385 1  25565776.439 1

  20633752.489 8 109989623.699 8  85547586.230 7
  20633762.724 7
  23325008.816 6 124729482.755 6  97011974.126 5
  23325017.228 5
  20966815.648 7 112197778.034 7  87264871.514 6
  20966823.063 6
  23468812.444 7 125454265.827 7  97575568.559 6
  23468819.812 6
  19807654.605 8 105846144.738 8  82324829.488 7
  19807664.717 7
  22038711.128 7 117644211.408 7  91501122.464 7
  22038720.315 7
  22644706.469 7 120836553.509 7  93984059.889 6
  22644716.806 6
  23152438.149 5 123676169.437 5

  37193535.786 7 195453423.657 7

  38349818.474 7 201529672.894 7

  39203597.617 6 206016316.943 6

 11 11  1  2 11 45.0000000  0 20G02G31G29G05G27G12G21G25G09R14R24R17
                                R01R15R18R02R16S20S33S38
  22787946.976 7 119751667.138 7  93313113.450 5  22787948.106 5  22787946.480 5

  24748466.594 6 130054050.032 6 101340838.057 3  24748472.926 3  24748466.661 3
  24748473.152 5
  21784118.149 8 114476342.198 8  89202388.305 6  21784124.177 6  21784118.096 6
  21784124.003 7
  22848658.480 7 120070667.315 7  93561660.177 5  22848662.925 5  22848658.560 5
  22848663.355 7
  24504181.623 6 128770297.805 6 100340522.146 3  24504196.928 3  24504181.418 3

  20568072.917 8 108086191.961 8  84223122.836 6  20568073.885 6  20568072.824 6
  20568075.028 7
  23463320.555 6 123300635.516 6  96078459.147 3  23463323.608 3  23463319.903 3

  20935127.337 8 110014955.702 8  85726035.973 7  20935132.264 7  20935126.711 7
  20935133.681 7
  22394031.887 7 117681525.563 7  91699836.301 4  22394036.829 4  22394031.507 4

  20642888.610 8 110038323.651 8  85585461.710 7
  20642898.560 7
  23330946.587 6 124761233.827 6  97036669.444 5
  23330954.376 5
  20969677.210 7 112213090.394 7  87276781.138 6
  20969683.922 6
  23468643.320 6 125453367.179 6  97574869.662 6
  23468652.927 6
  19803952.193 8 105826359.841 8  82309441.242 7
  19803962.259 7
  22035834.528 7 117628857.635 7  91489180.661 7
  22035843.815 7
  22637506.611 7 120798132.749 7  93954177.135 7
  22637516.031 7
  23141573.979 6 123618141.159 6  96147486.262 6
  23141585.408 6
  37193108.473 7 195451179.377 7

  38349582.381 7 201528450.636 7

  39203215.204 6 206014273.563 6

 11 11  1  2 12  0.0000000  0 20G02G31G29G05G27G12G21G25G09R14R24R17
                                R01R15R18R02R16S20S33S38
  22796985.679 7 119799165.197 7  93350124.909 5  22796986.963 5  22796985.170 5

  24739569.135 6 130007295.321 6 101304405.749 3  24739575.739 3  24739569.193 3
  24739576.759 5
  21781851.056 8 114464429.660 8  89193105.863 6  21781857.552 6  21781851.003 6
  21781857.026 7
  22845542.987 7 120054294.240 7  93548901.955 5  22845547.183 5  22845543.080 5
  22845547.100 6
  24514801.593 6 128826103.971 6 100384007.410 3  24514816.325 3  24514801.325 3

  20567564.717 8 108083523.572 8  84221043.829 6  20567566.284 6  20567564.624 6
  20567566.934 7
  23452718.483 6 123244923.026 6  96035047.064 3  23452721.695 3  23452717.871 3

  20929745.791 8 109986675.660 8  85703999.517 7  20929751.113 7  20929745.165 7
  20929752.163 7
  22402311.421 7 117725036.770 7  91733741.247 4  22402316.780 4  22402311.001 4

  20652047.929 7 110087143.868 7  85623433.375 6
  20652057.883 6
  23336877.984 6 124792943.597 6  97061332.629 5
  23336884.000 5
  20972541.260 7 112228416.879 7  87288701.763 6
  20972548.055 6
  23468505.020 7 125452622.660 7  97574290.605 6
  23468513.454 6
  19800287.194 8 105806775.829 8  82294209.255 7
  19800297.262 7
  22032967.938 7 117613555.080 7  91477278.697 7
  22032977.141 7
  22630320.377 7 120759782.800 7  93924349.472 7
  22630329.765 7
  23130726.899 5 123560194.599 5  96102411.753 4
  23130736.686 4
  37192680.172 7 195448935.500 7

  38349350.733 7 201527228.471 7

  39202822.832 7 206012228.847 7

 11 11  1  2 12 15.0000000  0 20G02G31G29G05G27G12G21G25G09R14R24R17
                                R01R15R18R02R16S20S33S38
  22806032.563 7 119846705.556 7  93387169.332 5  22806033.753 5  22806032.063 5

  24730687.741 6 129960622.341 6 101268037.112 3  24730694.207 3  24730687.812 3
  24730695.138 5
  21779589.164 8 114452542.624 8  89183843.290 6  21779595.389 6  21779589.111 6
  21779595.002 7
  22842445.533 7 120038018.545 7  93536219.630 5  22842449.963 5  22842445.617 5
  22842450.147 6
  24525416.692 7 128881886.470 7 100427474.249 3  24525431.416 3  24525416.406 3

  20567075.151 8 108080952.303 8  84219040.436 7  20567076.843 7  20567075.053 7
  20567077.167 7
  23442126.393 6 123189264.513 6  95991677.256 3  23442129.816 3  23442125.772 3

  20924376.755 8 109958457.210 8  85682010.341 6  20924381.768 6  20924376.129 6
  20924383.235 6
  22410600.909 8 117768598.073 8  91767685.110 5  22410605.943 5  22410600.436 5

                                  85661498.360 6
  20661238.813 6
  23342797.778 6 124824611.921 6  97085963.609 5
  23342807.578 5
  20975408.267 7 112243757.193 7  87300633.137 6
  20975414.339 6
  23468394.624 7 125452032.220 7  97573831.396 6
  23468402.987 6
  19796660.141 8 105787392.839 8  82279133.615 7
  19796670.272 7
  22030109.477 7 117598302.366 7  91465415.520 7
  22030119.527 7
  22623146.679 7 120721503.982 7  93894577.144 7
  22623156.056 7
  23119895.285 6 123502330.350 6  96057406.205 6
  23119904.366 6
  37192251.572 7 195446689.289 7

  38349119.081 7 201526006.437 7

  39202434.678 7 206010184.603 7

 11 11  1  2 12 30.0000000  0 20G02G31G29G05G27G12G21G25G09R14R24R17
                                R01R15R18R02R16S20S33S38
  22815086.937 7 119894287.767 7  93424246.381 5  22815088.234 5  22815086.428 5

  24721821.641 7 129914031.465 7 101231732.466 4  24721828.593 4  24721821.717 4
  24721829.075 5
  21777332.183 8 114440681.027 8  89174600.536 6  21777337.949 6  21777332.125 6
  21777338.165 7
  22839367.115 7 120021840.612 7  93523613.479 5  22839371.251 5  22839367.204 5
  22839371.569 6
  24536026.469 6 128937644.977 6 100470922.388 3  24536042.192 3  24536026.156 3

  20566604.644 8 108078478.497 8  84217112.699 7  20566606.258 7  20566604.546 7
  20566606.719 7
  23431544.420 6 123133659.341 6  95948348.765 2  23431548.075 2  23431543.759 2

  20919019.178 8 109930303.994 8  85660072.926 7  20919025.104 7  20919018.552 7
  20919025.413 7
  22418899.076 6 117812207.242 6  91801666.952 4  22418904.702 4  22418898.531 4

  20670432.176 8 110185145.025 8  85699655.040 8
  20670442.194 8
  23348711.516 5 124856238.792 5  97110562.240 5
  23348718.560 5
  20978276.745 7 112259111.345 7  87312575.283 6
  20978283.670 6
  23468312.537 7 125451595.788 7  97573491.984 6
  23468320.009 6
  19793070.504 8 105768210.769 8  82264214.258 7
  19793080.587 7
  22027262.437 7 117583100.524 7  91453591.925 7
  22027271.751 7
  22615985.870 7 120683296.859 7  93864860.592 7
  22615995.997 7
  23109078.217 6 123444549.838 6  96012466.150 6
  23109088.687 6
  37191826.571 7 195444443.592 7

  38348888.832 6 201524784.832 6

  39202044.623 7 206008139.453 7

 11 11  1  2 12 45.0000000  0 20G02G31G29G05G27G12G21G25G09R14R24R17
                                R01R15R18R02R16S20S33S38
  22824149.561 7 119941911.578 7  93461355.840 5  22824150.751 5  22824149.052 5

  24712971.491 7 129867523.059 7 101195492.096 4  24712978.483 4  24712971.549 4
  24712978.711 6
  21775079.638 8 114428844.679 8  89165377.453 6  21775085.311 6  21775079.585 6
  21775085.584 7
  22836307.154 7 120005760.645 7  93511083.662 5  22836311.346 5  22836307.234 5
  22836311.275 7
  24546632.528 6 128993379.226 6 100514351.641 3  24546648.482 3  24546632.211 3

  20566152.556 8 108076103.494 8  84215262.173 6  20566154.401 6  20566152.458 6
  20566154.637 7
  23420973.367 7 123078108.540 7  95905062.707 4  23420976.899 4  23420972.733 4

  20913673.751 9 109902214.505 9  85638185.149 7  20913680.115 7  20913673.125 7
  20913680.218 7
  22427207.571 7 117855867.069 7  91835687.303 5  22427212.516 5  22427206.995 5

  20679658.075 8 110234322.622 8  85737903.985 7
  20679668.335 7
  23354622.468 5 124887824.251 5  97135128.704 5
  23354624.727 5
  20981148.874 7 112274478.864 7  87324527.813 6
  20981155.898 6
  23468259.528 7 125451313.883 7  97573272.717 6
  23468268.158 6
  19789518.264 8 105749230.383 8  82249451.709 7
  19789528.559 7
  22024423.991 7 117567948.659 7  91441807.200 7
  22024433.231 7
  22608839.399 7 120645161.880 7  93835200.139 7
  22608849.978 7
  23098277.494 7 123386852.622 7  95967590.482 6
  23098286.898 6
  37191398.288 7 195442196.890 7

  38348650.593 6 201523563.042 6

  39201647.350 6 206006094.677 6

 11 11  1  2 13  0.0000000  0 20G02G31G29G05G27G12G21G25G09R14R24R17
                                R01R15R18R02R16S20S33S38
  22833219.923 7 119989576.798 7  93498497.553 5  22833221.035 5  22833219.409 5

  24704136.850 6 129821097.442 6 101159316.217 4  24704144.095 4  24704136.912 4
  24704144.676 6
  21772831.783 8 114417033.611 8  89156174.082 6  21772837.556 6  21772831.725 6
  21772837.879 7
  22833265.995 7 119989778.789 7  93498630.305 5  22833270.205 5  22833266.088 5
  22833270.235 6
  24557233.693 6 129049088.722 6 100557761.589 3  24557249.975 3  24557233.340 3

  20565719.048 8 108073825.758 8  84213487.642 7  20565720.533 7  20565718.946 7
  20565720.820 7
  23410412.488 7 123022611.805 7  95861818.778 4  23410415.902 4  23410411.858 4

  20908341.120 8 109874186.460 8  85616344.217 6  20908346.560 6  20908340.490 6
  20908347.763 7
  22435525.535 6 117899576.909 6  91869746.979 4  22435530.235 4  22435524.990 4

  20688905.488 8 110283619.536 8  85776247.801 7
  20688915.280 7
  23360517.098 5 124919368.088 5  97159662.852 5
  23360526.003 5
  20984023.249 7 112289859.740 7  87336490.724 6
  20984030.328 6
  23468235.784 7 125451186.322 7  97573173.540 6
  23468244.582 6
  19786004.285 8 105730451.701 8  82234846.099 7
  19786014.292 7
  22021594.663 7 117552846.527 7  91430061.034 7
  22021604.148 7
  22601706.657 7 120607099.563 7  93805596.233 7
  22601716.226 7
  23087491.869 7 123329239.602 7  95922780.657 7
  23087501.600 7
  37190969.133 7 195439950.549 7

  38348418.928 7 201522340.305 7

  39201266.287 7 206004049.908 7

 11 11  1  2 13 15.0000000  0 20G02G31G29G05G27G12G21G25G09R14R24R17
                                R01R15R18R02R16S20S33S38
  22842298.252 7 120037282.980 7  93535671.200 5  22842299.453 5  22842297.756 5

  24695317.960 6 129774754.982 6 101123205.152 4  24695325.716 4  24695318.013 4
  24695326.408 6
  21770589.029 8 114405247.680 8  89146990.279 6  21770594.577 6  21770588.971 6
  21770595.165 7
  22830243.180 7 119973895.445 7  93486253.707 5  22830247.728 5  22830243.273 5
  22830247.622 6
  24567830.366 6 129104773.334 6 100601152.141 3  24567846.621 3  24567830.013 3

  20565304.590 7 108071645.131 7  84211787.896 6  20565305.548 6  20565304.483 6
  20565306.619 6
  23399862.105 7 122967169.135 7  95818616.397 4  23399865.475 4  23399861.471 4

  20903020.310 8 109846224.849 8  85594555.980 6  20903026.058 6  20903019.671 6
  20903026.685 7
  22443852.869 6 117943334.826 6  91903844.528 4  22443857.286 4  22443852.355 4

  20698174.987 7 110333030.953 7  85814678.247 7
  20698185.083 7
  23366410.504 5 124950870.390 5  97184164.660 5
  23366417.194 5
  20986900.213 7 112305252.990 7  87348463.299 6
  20986907.358 6
  23468240.607 7 125451213.580 7  97573194.787 6
  23468248.809 6
  19782527.350 8 105711874.120 8  82220396.902 7
  19782537.677 7
  22018774.641 7 117537793.953 7  91418353.436 7
  22018784.789 7
  22594587.640 7 120569110.627 7  93776049.331 7
  22594597.551 7
  23076721.969 7 123271711.319 7  95878029.717 6
  23076731.617 6
  37190541.668 7 195437703.552 7

  38348186.376 7 201521117.970 7

  39200874.372 7 206002005.014 7

 11 11  1  2 13 30.0000000  0 20G02G31G29G05G27G12G21G25G09R14R24R17
                                R01R15R18R02R16S20S33S38
  22851383.967 7 120085029.614 7  93572876.356 5  22851385.709 5  22851383.480 5

  24686515.398 6 129728495.879 6 101087159.049 4  24686522.960 4  24686515.442 4
  24686522.515 6
  21768350.931 8 114393486.606 8  89137825.850 6  21768356.467 6  21768350.873 6
  21768356.669 7
  22827239.958 7 119958110.566 7  93473953.834 5  22827243.817 5  22827240.074 5
  22827244.089 6
  24578422.128 6 129160432.722 6 100644523.021 3  24578438.347 3  24578421.780 3

  20564908.433 8 108069564.424 8  84210166.638 6  20564909.895 6  20564908.326 6
  20564910.201 7
  23389322.488 6 122911781.010 6  95775456.824 2  23389326.004 2  23389321.800 2

  20897711.382 8 109818327.927 8  85572818.414 7  20897717.290 7  20897710.739 7
  20897717.711 7
  22452188.632 6 117987142.580 6  91937980.471 3  22452193.960 3  22452188.154 3

  20707467.380 8 110382556.272 8  85853194.698 6
  20707478.295 6
  23372293.123 6 124982331.062 6  97208634.055 5
  23372299.732 5
  20989779.438 7 112320658.922 7  87360445.688 6
  20989785.873 6
  23468274.711 7 125451395.562 7  97573336.379 6
  23468284.465 6
  19779088.724 8 105693499.022 8  82206105.169 8
  19779099.000 8
  22015964.151 7 117522790.869 7  91406684.397 7
  22015973.910 7
  22587482.831 7 120531195.388 7  93746559.757 7
  22587491.848 7
  23065968.506 7 123214267.792 7  95833351.718 6
  23065977.922 6
  37190117.928 7 195435457.161 7

  38347953.043 7 201519896.494 7

  39200488.994 7 205999960.897 7

 11 11  1  2 13 45.0000000  0 20G02G31G29G05G27G12G21G25G09R14R24R17
                                R01R15R18R02R16S20S33S38
  22860477.607 7 120132816.353 7  93610112.753 5  22860479.223 5  22860477.134 5

  24677728.766 6 129682320.486 6 101051178.206 4  24677736.065 4  24677728.806 4
  24677736.507 6
  21766117.885 8 114381750.213 8  89128680.654 6  21766123.106 6  21766117.832 6
  21766123.102 7
  22824254.403 7 119942424.548 7  93461730.993 5  22824258.714 5  22824254.492 5
  22824259.365 6
  24589008.387 6 129216066.505 6 100687873.969 3  24589024.686 3  24589008.061 3

  20564530.986 8 108067582.482 8  84208622.485 6  20564532.691 6  20564530.884 6
  20564532.753 7
  23378793.675 5 122856448.657 5  95732340.419 1  23378796.553 1  23378793.032 1

  20892415.004 9 109790495.783 9  85551131.164 7  20892420.899 7  20892414.370 7
  20892421.480 8
  22460533.553 7 118031000.311 7  91972156.125 5  22460539.613 5  22460533.080 5

  20716780.616 8 110432201.946 8  85891808.902 7
  20716791.515 7
  23378168.615 6 125013750.013 6  97233071.035 5
  23378175.519 5
  20992660.474 7 112336077.695 7  87372438.112 6
  20992666.936 6
  23468337.701 7 125451732.244 7  97573598.243 6
  23468345.730 6
  19775687.975 8 105675326.043 8  82191970.644 7
  19775698.196 7
  22013162.769 7 117507836.865 7  91395053.473 7
  22013172.869 7
  22580390.710 7 120493354.294 7  93717127.873 7
  22580399.630 7
  23055229.894 7 123156909.394 7  95788739.715 7
  23055239.839 7
  37189689.582 7 195433210.183 7

  38347714.526 7 201518674.844 7

  39200101.059 6 205997914.862 6

 11 11  1  2 14  0.0000000  0 20G02G31G29G05G27G12G21G25G09R14R24R17
                                R01R15R18R02R16S20S33S38
  22869578.722 7 120180643.037 7  93647380.282 5  22869580.361 5  22869578.262 5

  24668957.495 6 129636229.068 6 101015262.778 4  24668965.157 4  24668957.517 4
  24668965.328 6
  21763888.886 8 114370038.616 8  89119554.781 6  21763894.311 6  21763888.828 6
  21763894.571 7
  22821288.561 7 119926838.130 7  93449585.746 5  22821292.874 5  22821288.672 5
  22821292.967 7
  24599590.755 6 129271674.395 6 100731204.740 3  24599606.436 3  24599590.425 3

  20564172.640 8 108065699.330 8  84207155.030 6  20564174.326 6  20564172.533 6
  20564174.664 8
  23368273.741 7 122801105.593 7  95689191.458 5  23368277.853 5  23368273.585 5

  20887130.924 8 109762727.664 8  85529493.495 7  20887136.657 7  20887130.285 7
  20887137.527 7
  22468888.842 7 118074904.979 7  92006365.830 5  22468894.075 5  22468888.337 5

  20726115.430 8 110481961.408 8  85930511.259 7
  20726126.490 7
  23384037.375 6 125045127.425 6  97257475.767 5
  23384042.631 5
  20995543.936 7 112351508.334 7  87384439.710 6
  20995551.143 6
  23468429.959 7 125452224.023 7  97573980.750 6
  23468437.570 6
  19772325.303 8 105657355.670 8  82177993.689 7
  19772335.054 7
  22010370.514 7 117492932.210 7  91383460.971 7
  22010380.365 7
  22573313.279 7 120455587.941 7  93687754.105 6
  22573323.002 6
  23044509.076 7 123099637.375 7  95744194.921 6
  23044518.494 6
  37189263.482 7 195430963.616 7

  38347488.240 7 201517453.560 7

  39199709.505 7 205995870.609 7

 11 11  1  2 14 15.0000000  0 20G02G31G29G05G27G12G21G25G09R14R24R17
                                R01R15R18R02R16S20S33S38
  22878687.095 7 120228509.247 7  93684678.625 5  22878689.061 5  22878686.648 5

  24660202.952 6 129590221.986 6 100979413.069 4  24660210.431 4  24660202.944 4
  24660210.104 6
  21761664.813 7 114358351.598 7  89110448.068 6  21761670.291 6  21761664.760 6
  21761670.700 7
  22818341.275 7 119911351.183 7  93437518.021 5  22818345.776 5  22818341.400 5
  22818345.771 6
  24610167.575 6 129327255.930 6 100774514.974 3  24610183.236 3  24610167.254 3

  20563833.034 8 108063914.456 8  84205764.176 6  20563834.487 6  20563832.932 6
  20563835.193 7
  23357765.876 6 122745883.120 6  95646160.847 3  23357769.549 3  23357765.367 3

  20881859.635 8 109735024.862 8  85507906.549 7  20881865.249 7  20881858.996 7
  20881866.067 7
  22477252.264 7 118118856.663 7  92040613.950 5  22477257.356 5  22477251.889 5

  20735472.257 7 110531837.588 7  85969303.770 6
  20735484.015 6
  23389897.078 6 125076463.033 6  97281847.898 5
  23389903.349 5
  20998429.824 7 112366950.585 7  87396450.372 6
  20998436.723 6
  23468551.044 7 125452870.902 7  97574483.893 6
  23468558.624 6
  19768999.749 8 105639587.791 8  82164174.257 7
  19769010.452 7
  22007587.898 7 117478076.019 7  91371906.159 7
  22007597.272 7
  22566249.984 7 120417897.133 7  93658439.112 7
  22566258.577 7
  23033803.623 7 123042451.651 7  95699717.335 6
  23033812.466 6
  37188837.694 7 195428717.751 7

  38347254.468 7 201516232.458 7

  39199322.571 6 205993826.049 6

 11 11  1  2 14 30.0000000  0 20G02G31G29G05G27G12G21G25G09R14R24R17
                                R01R15R18R02R16S20S33S38
  22887803.459 7 120276414.765 7  93722007.584 5  22887805.286 5  22887803.021 5

  24651464.404 6 129544299.634 6 100943629.360 4  24651471.802 4  24651464.396 4
  24651472.243 6
  21759445.827 7 114346688.989 7  89101360.371 6  21759450.824 6  21759445.769 6
  21759451.395 7
  22815413.261 7 119895964.143 7  93425528.150 5  22815417.364 5  22815413.399 5
  22815418.351 6
  24620739.283 6 129382810.944 6 100817804.597 3  24620755.091 3  24620738.962 3

  20563512.254 8 108062229.634 8  84204451.492 6  20563513.617 6  20563512.152 6
  20563514.128 7
  23347267.649 6 122690717.386 6  95603174.967 2  23347272.670 2  23347267.238 2

  20876600.488 8 109707388.337 8  85486371.589 7  20876606.639 7  20876599.849 7
  20876606.940 7
  22485624.921 7 118162855.695 7  92074899.005 4  22485629.382 4  22485624.492 4

  20744850.722 8 110581828.654 8  86008185.696 8
  20744860.982 8
  23395748.762 6 125107756.998 6  97306187.672 5
  23395755.438 5
  21001317.350 7 112382404.552 7  87408470.154 6
  21001324.675 6
  23468701.033 7 125453673.131 7  97575107.855 6
  23468708.435 6
  19765713.560 8 105622022.554 8  82150512.410 7
  19765723.200 7
  22004814.187 7 117463268.365 7  91360389.102 7
  22004823.527 7
  22559200.808 7 120380282.239 7  93629183.133 6
  22559210.319 6
  23023115.182 7 122985353.053 7  95655307.354 6
  23023124.063 6
  37188410.153 7 195426471.186 7

  38347020.682 7 201515012.076 7

  39198931.108 7 205991779.426 7

 11 11  1  2 14 45.0000000  0 20G02G31G29G05G27G12G21G25G09R14R24R17
                                R01R15R18R02R16S20S33S38
  22896927.083 7 120324359.272 7  93759366.935 5  22896928.823 5  22896926.663 5

  24642741.714 6 129498462.350 6 100907911.914 4  24642749.487 4  24642741.683 4
  24642749.407 6
  21757230.830 8 114335050.840 8  89092291.719 6  21757235.944 6  21757230.768 6
  21757236.692 7
  22812504.358 7 119880677.129 7  93413616.205 5  22812508.139 5  22812504.478 5
  22812509.025 6
  24631306.286 6 129438339.091 6 100861073.272 3  24631321.576 3  24631305.960 3

  20563210.330 8 108060644.539 8  84203216.714 7  20563211.944 7  20563210.228 7
  20563212.103 6
  23336780.941 6 122635609.024 6  95560233.854 3  23336785.329 3  23336780.499 3

  20871353.997 8 109679817.591 8  85464887.856 7  20871360.384 7  20871353.363 7
  20871360.397 7
  22494006.695 6 118206900.695 6  92109220.539 4  22494011.144 4  22494006.195 4

  20754249.438 7 110631932.821 7  86047155.330 7
  20754261.160 7
  23401593.600 6 125139009.289 6  97330494.981 5
  23401597.877 5
  21004207.278 7 112397869.980 7  87420498.861 6
  21004214.551 6
  23468880.482 7 125454630.779 7  97575852.744 5
  23468889.338 5
  19762464.011 8 105604660.354 8  82137008.499 7
  19762474.310 7
  22002048.635 7 117448508.894 7  91348909.449 7
  22002058.570 7
  22552166.378 7 120342743.733 7  93599986.611 7
  22552175.681 7
  23012442.615 8 122928341.657 8  95610965.061 7
  23012450.797 7
  37187978.158 7 195424225.841 7

  38346787.344 7 201513790.055 7

  39198544.272 7 205989734.510 7

 11 11  1  2 15  0.0000000  0 20G02G31G29G05G27G12G21G25G09R14R24R17
                                R01R15R18R02R16S20S33S38
  22906058.176 7 120372342.338 7  93796756.321 5  22906059.639 5  22906057.752 5

  24634035.798 6 129452710.470 6 100872261.005 4  24634043.408 4  24634035.785 4
  24634043.374 6
  21755021.149 8 114323436.987 8  89083242.003 6  21755025.711 6  21755021.087 6
  21755026.398 7
  22809614.668 7 119865490.274 7  93401782.305 5  22809618.107 5  22809614.779 5
  22809618.691 6
  24641868.255 6 129493840.014 6 100904320.747 3  24641882.359 3  24641867.960 3

  20562927.909 8 108059158.658 8  84202058.892 6  20562929.028 6  20562927.807 6
  20562929.395 6
  23326304.373 6 122580556.645 6  95517335.982 4  23326308.858 4  23326303.908 4

  20866120.204 8 109652313.195 8  85443455.816 7  20866126.493 7  20866119.570 7
  20866126.935 7
  22502397.543 6 118250993.100 6  92143578.403 4  22502402.380 4  22502396.962 4

  20763670.117 7 110682150.039 7  86086212.347 5
  20763681.436 5
  23407428.745 5 125170219.800 5  97354769.845 5
  23407435.573 5
  21007099.244 7 112413346.741 7  87432536.342 6
  21007106.046 6
  23469088.659 7 125455743.964 7  97576718.554 6
  23469096.088 6
  19759252.844 8 105587501.413 8  82123662.669 8
  19759263.239 8
  21999292.975 7 117433797.442 7  91337467.208 7
  21999302.328 7
  22545145.602 7 120305282.222 7  93570849.953 6
  22545154.740 6
  23001785.792 7 122871418.169 7  95566691.172 6
  23001795.509 6
  37187550.899 7 195421979.825 7

  38346551.435 7 201512568.741 7

  39198151.762 7 205987689.294 7

 11 11  1  2 15 15.0000000  0 20G02G31G29G05G27G12G21G25G09R14R24R17
                                R01R15R18R02R16S20S33S38
  22915195.978 7 120420363.554 7  93834175.441 5  22915197.780 5  22915195.563 5

  24625346.069 6 129407044.253 6 100836676.840 4  24625353.413 4  24625346.065 4
  24625353.625 6
  21752815.538 8 114311847.328 8  89074211.128 6  21752820.226 6  21752815.471 6
  21752821.160 7
  22806743.493 7 119850404.006 7  93390026.790 5  22806747.142 5  22806743.582 5
  22806747.867 6
  24652423.676 7 129549313.330 7 100947546.697 3  24652438.706 3  24652423.381 3

  20562664.044 8 108057771.578 8  84200977.798 6  20562664.845 6  20562663.946 6
  20562665.585 6
  23315839.507 5 122525560.896 5  95474481.463 3  23315842.998 3  23315839.096 3

  20860898.768 8 109624875.475 8  85422075.840 7  20860905.096 7  20860898.134 7
  20860905.537 7
  22510795.353 6 118295033.922 6  92177969.803 5  22510801.809 5  22510794.745 5

  20773112.864 8 110732480.315 8  86125357.685 7
  20773123.555 7
  23413256.591 6 125201388.326 6  97379012.055 6
  23413265.926 6
  21009993.772 7 112428834.156 7  87444582.129 6
  21010001.803 6
  23469326.479 7 125457012.774 7  97577705.446 5
  23469333.224 5
  19756080.212 8 105570546.115 8  82110475.234 7
  19756090.110 7
  21996545.938 7 117419134.164 7  91326062.454 7
  21996555.496 7
  22538140.285 7 120267898.249 7  93541773.578 6
  22538148.948 6
  22991146.516 6 122814583.384 6  95522486.515 5
  22991155.880 5
  37187124.624 7 195419733.639 7

  38346324.066 7 201511347.846 7

  39197766.000 7 205985644.867 7

 11 11  1  2 15 30.0000000  0 21G02G31G29G05G30G27G12G21G25G09R14R24
                                R17R01R15R18R02R16S20S33S38
  22924340.947 7 120468422.579 7  93871624.028 5  22924343.178 5  22924340.541 5

  24616672.263 6 129361463.868 6 100801159.554 4  24616680.075 4  24616672.241 4
  24616679.750 6
  21750614.623 8 114300281.679 8  89065198.955 6  21750619.499 6  21750614.556 6
  21750620.514 7
  22803891.598 7 119835418.521 7  93378349.826 5  22803895.615 5  22803891.687 5
  22803896.456 6
  25746257.536 5 135297499.347 5

  24662974.712 6 129604758.757 6 100990750.924 3  24662989.750 3  24662974.440 3

  20562418.896 8 108056486.141 8  84199976.750 7  20562420.310 7  20562418.798 7
  20562420.932 7
  23305385.277 5 122470622.130 5  95431671.697 3  23305387.571 3  23305384.884 3

  20855690.143 8 109597504.541 8  85400747.899 7  20855696.550 7  20855689.509 7
  20855696.914 7
  22519204.197 6 118339218.493 6  92212399.916 3  22519209.796 3  22519203.442 3

  20782575.402 8 110782924.505 8  86164592.572 8
  20782586.114 8
  23419078.355 6 125232515.117 6  97403221.853 6
  23419085.876 6
  21012890.007 7 112444332.584 7  87456636.460 6
  21012897.482 6
  23469591.667 7 125458437.244 7  97578813.377 6
  23469598.957 6
  19752945.305 8 105553794.086 8  82097445.879 7
  19752955.290 7
  21993808.118 7 117404518.404 7  91314694.634 7
  21993817.218 7
  22531148.962 7 120230592.219 7  93512757.844 7
  22531158.565 7
  22980523.952 7 122757837.636 7  95478350.913 6
  22980532.122 6
  37186695.178 7 195417486.891 7

  38346087.325 7 201510126.285 7

  39197374.500 7 205983599.863 7

 11 11  1  2 15 45.0000000  0 21G02G31G29G05G30G27G12G21G25G09R14R24
                                R17R01R15R18R02R16S20S33S38
  22933493.773 7 120516519.088 7  93909101.825 5  22933495.744 5  22933493.376 5

  24608015.041 7 129315969.645 7 100765709.388 4  24608023.063 4  24608015.010 4
  24608023.035 6
  21748418.409 8 114288739.926 8  89056205.413 6  21748423.324 6  21748418.338 6
  21748424.118 7
  22801059.314 7 119820533.969 7  93366751.504 5  22801063.370 5  22801059.390 5
  22801064.037 6
  25737219.418 5 135250003.909 5 105389640.242 1  25737226.776 1  25737218.761 1

  24673520.251 7 129660175.954 7 101033933.184 3  24673535.454 3  24673520.001 3

  20562193.218 8 108055298.951 8  84199051.341 6  20562194.113 6  20562193.107 6
  20562195.546 6
  23294941.473 6 122415741.014 6  95388907.511 2  23294944.106 2  23294940.977 2

  20850494.529 8 109570200.689 8  85379472.221 7  20850500.784 7  20850493.899 7
  20850501.284 7
  22527620.465 7 118383449.317 7  92246865.291 5  22527625.717 5  22527619.889 5

  20792059.410 7 110833479.656 7  86203914.380 6
  20792070.091 6
  23424889.872 6 125263600.164 6  97427399.136 5
  23424898.265 5
  21015787.180 7 112459841.207 7  87468698.760 6
  21015794.329 6
  23469888.379 7 125460017.721 7  97580042.613 6
  23469895.598 6
  19749848.198 8 105537245.847 8  82084575.043 8
  19749858.161 8
  21991078.822 7 117389950.013 7  91303363.640 7
  21991088.625 7
  22524172.594 7 120193364.668 7  93483803.124 6
  22524181.565 6
  22969917.527 8 122701181.050 8  95434284.579 6
  22969925.438 6
  37186268.675 7 195415240.281 7

  38345856.920 7 201508906.657 7

  39196989.279 6 205981555.213 6

 11 11  1  2 16  0.0000000  0 21G02G31G29G05G30G27G12G21G25G09R14R24
                                R17R01R15R18R02R16S20S33S38
  22942653.565 7 120564652.983 7  93946608.743 5  22942655.497 5  22942653.172 5

  24599374.931 6 129270562.105 6 100730326.718 4  24599382.457 4  24599374.896 4
  24599382.209 6
  21746226.396 8 114277221.977 8  89047230.423 6  21746231.648 6  21746226.325 6
  21746232.180 7
  22798246.300 7 119805750.811 7  93355232.176 5  22798250.348 5  22798246.398 5
  22798250.574 6
  25728176.902 5 135202478.823 5 105352607.800 1  25728183.662 1  25728176.174 1

  24684059.844 6 129715564.812 6 101077093.384 3  24684075.860 3  24684059.608 3

  20561986.509 8 108054213.756 8  84198206.115 6  20561987.528 6  20561986.389 6
  20561988.441 6
  23284508.070 6 122360918.142 6  95346188.819 3  23284511.475 3  23284507.552 3

  20845311.575 8 109542964.288 8  85358249.105 7  20845317.762 7  20845310.945 7
  20845318.027 7
  22536045.359 7 118427724.241 7  92281365.309 4  22536050.240 4  22536044.581 4

  20801564.419 7 110884146.598 7  86243320.883 6
  20801575.611 6
  23430696.703 6 125294643.311 6  97451543.821 5
  23430702.745 5
  21018688.356 7 112475360.334 7  87480769.176 6
  21018695.145 6
  23470213.094 7 125461754.139 7  97581393.199 6
  23470221.060 6
  19746789.666 8 105520901.340 8  82071862.674 8
  19746799.827 8
  21988358.182 7 117375428.954 7  91292069.506 7
  21988367.933 7
  22517210.461 7 120156216.170 7  93454909.946 6
  22517219.468 6
  22959328.114 7 122644614.170 7  95390287.948 7
  22959337.554 7
  37185841.684 7 195412992.002 7

  38345626.109 7 201507685.606 7

  39196595.566 7 205979509.085 7

 11 11  1  2 16 15.0000000  0 21G02G31G29G05G30G27G12G21G25G09R14R24
                                R17R01R15R18R02R16S20S33S38
  22951820.326 7 120612823.808 7  93984144.442 5  22951822.238 5  22951819.942 5

  24590750.474 6 129225241.581 6 100695011.856 4  24590758.030 4  24590750.416 4
  24590758.119 5
  21744039.344 8 114265727.772 8  89038273.934 6  21744044.488 6  21744039.273 6
  21744044.880 7
  22795452.053 7 119791069.244 7  93343792.029 5  22795456.622 5  22795452.142 5
  22795456.861 6
  25719126.714 5 135154924.338 5 105315552.405 1  25719134.586 1  25719126.026 1

  24694594.225 6 129770924.988 6 101120231.188 3  24694611.057 3  24694594.011 3

  20561798.838 8 108053228.253 8  84197438.133 6  20561799.810 6  20561798.713 6
  20561800.851 7
  23274086.353 7 122306153.587 7  95303515.626 4  23274089.759 4  23274085.745 4

  20840141.545 8 109515795.650 8  85337078.789 7  20840147.555 7  20840140.915 7
  20840148.159 7
  22544479.672 6                                  22544484.163 4  22544478.926 4

  20811090.384 8 110934924.468 8  86282814.614 6
  20811101.134 6
  23436495.637 6 125325644.776 6  97475656.041 6
  23436501.748 6
  21021590.277 7 112490889.490 7  87492847.443 6
  21021596.878 6
  23470566.690 7 125463646.807 7  97582865.266 6
  23470575.404 6
  19743768.966 8 105504761.283 8  82059309.305 8
  19743779.398 8
  21985646.475 7 117360955.018 7  91280811.958 7
  21985656.622 7
  22510263.748 7 120119147.486 7  93426078.804 7
  22510273.168 7
  22948754.736 7 122588138.062 7  95346361.945 6
  22948765.899 6
  37185412.091 7 195410742.955 7

  38345390.870 7 201506463.820 7

  39196204.688 7 205977464.833 7

 11 11  1  2 16 30.0000000  0 21G02G31G29G05G30G27G12G21G25G09R14R24
                                R17R01R15R18R02R16S20S33S38
  22960993.421 7 120661031.163 7  94021708.615 5  22960995.767 5  22960993.055 5

  24582143.211 6 129180008.353 6 100659765.022 4  24582150.331 4  24582143.153 4
  24582150.159 5
  21741856.493 8 114254257.264 8  89029335.918 6  21741862.032 6  21741856.426 6
  21741861.894 7
  22792677.571 7 119776489.649 7  93332431.311 5  22792682.239 5  22792677.647 5
  22792682.499 6
  25710071.101 5 135107340.481 5 105278474.186 1  25710079.801 1  25710070.341 1

  24705123.635 6 129826255.953 6 101163346.213 3  24705140.055 3  24705123.399 3

  20561630.606 8 108052344.129 8  84196749.367 6  20561631.748 6  20561630.486 6
  20561632.094 7
  23263675.908 7 122251446.957 7  95260887.458 4  23263678.946 4  23263675.305 4

  20834984.318 8 109488695.015 8  85315961.463 7  20834990.379 7  20834983.697 7
  20834990.996 7
  22552919.917 6 118516403.990 6  92350460.940 4  22552926.206 4  22552919.220 4

  20820636.115 8 110985812.212 8  86322393.876 7
  20820647.195 7
  23442284.568 6 125356604.234 6  97499735.682 6
  23442290.548 6
  21024493.840 7 112506428.363 7  87504933.259 6
  21024501.264 6
  23470950.781 7 125465695.743 7  97584458.913 6
  23470957.276 6
  19740787.181 8 105488825.958 8  82046915.179 7
  19740797.034 7
  21982944.294 7 117346527.795 7  91269590.732 7
  21982953.514 7
  22503331.931 7 120082158.871 7  93397309.957 7
  22503341.645 7
  22938200.089 7 122531753.100 7  95302506.938 6
  22938209.633 6
  37184984.510 7 195408493.196 7

  38345155.443 7 201505243.243 7

  39195813.944 7 205975420.256 7

 11 11  1  2 16 45.0000000  0 21G02G31G29G05G30G27G12G21G25G09R14R24
                                R17R01R15R18R02R16S20S33S38
  22970173.759 7 120709274.628 7  94059300.927 5  22970176.084 5  22970173.393 5

  24573552.383 6 129134862.690 6 100624586.409 3  24573559.069 3  24573552.325 3
  24573560.380 5
  21739678.063 8 114242810.250 8  89020416.185 6  21739683.958 6  21739677.987 6
  21739683.610 7
  22789922.961 7 119762011.850 7  93321149.922 5  22789927.179 5  22789923.041 5
  22789927.560 6
  25701011.328 5 135059727.607 5 105241373.293 1  25701019.422 1  25701010.376 1

  24715646.827 6 129881557.462 6 101206438.300 3  24715663.643 3  24715646.604 3

  20561481.191 8 108051560.868 8  84196139.346 6  20561482.736 6  20561481.071 6
  20561482.511 7
  23253276.950 7 122196798.453 7  95218303.237 3  23253279.459 3  23253276.427 3

  20829840.211 8 109461662.649 8  85294897.340 7  20829846.247 7  20829839.590 7
  20829847.177 7
  22561371.083 7 118560810.384 7  92385062.919 4  22561376.678 4  22561370.560 4

  20830203.323 9 111036810.636 9  86362058.705 8
  20830214.695 8
  23448065.415 6 125387521.833 6  97523782.718 6
  23448073.638 6
  21027399.220 7 112521977.077 7  87517026.699 6
  21027406.473 6
  23471363.108 7 125467901.062 7  97586174.162 5
  23471369.840 5
  19737843.041 8 105473094.663 8  82034679.741 7
  19737853.387 7
  21980251.002 7 117332147.584 7  91258406.119 7
  21980259.694 7
  22496416.243 7 120045251.012 7  93368603.894 7
  22496425.572 7
  22927661.876 7 122475459.689 7  95258723.150 5
  22927671.667 5
  37184557.340 7 195406243.904 7

  38344925.200 7 201504022.467 7

  39195430.046 7 205973374.742 7

 11 11  1  2 17  0.0000000  0 20G02G31G29G05G30G27G12G25G09R14R24R17
                                R01R15R18R02R16S20S33S38
  22979361.115 7 120757553.882 7  94096921.112 5  22979363.189 5  22979360.776 5

  24564978.375 6 129089804.832 6 100589476.214 3  24564985.207 3  24564978.331 3
  24564985.987 5
  21737504.215 8 114231386.643 8  89011514.724 6  21737510.168 6  21737504.139 6
  21737509.811 7
  22787187.485 7 119747636.517 7  93309948.387 5  22787191.525 5  22787187.561 5
  22787191.860 6
  25691944.508 5 135012085.681 5 105204249.754 2  25691953.417 2  25691943.543 2

  24726164.822 6 129936829.207 6 101249507.181 3  24726181.655 3  24726164.586 3

  20561351.352 8 108050878.261 8  84195607.440 6  20561352.679 6  20561351.227 6
  20561352.825 7
  20824708.984 8 109434698.913 8  85273886.685 7  20824715.172 7  20824708.358 7
  20824716.058 7
  22569830.117 6 118605261.767 6  92419700.704 4  22569835.723 4  22569829.585 4

  20839791.213 8 111087916.372 8  86401808.162 8
  20839802.178 8
  23453839.132 6 125418397.556 6  97547797.204 5
  23453844.901 5
  21030306.400 7 112537534.969 7  87529127.306 6
  21030314.158 6
  23471805.105 7 125470262.752 7  97588011.045 6
  23471811.609 6
  19734937.246 8 105457567.633 8  82022603.183 7
  19734947.755 7
  21977565.405 7 117317814.007 7  91247257.860 7
  21977574.539 7
  22489513.656 7 120008424.431 7  93339961.081 6
  22489523.659 6
  22917140.672 8 122419258.751 8

  37184128.073 7 195403994.059 7

  38344690.860 7 201502802.229 7

  39195039.566 7 205971329.842 7

 11 11  1  2 17 15.0000000  0 21G02G31G29G05G30G27G12G21G25G09R14R24
                                R17R01R15R18R02R16S20S33S38
  22988555.378 7 120805868.679 7  94134568.989 5  22988557.145 5  22988555.052 5

  24556420.515 6 129044835.168 6 100554434.786 3  24556428.136 3  24556420.493 3
  24556428.546 6
  21735334.978 8 114219986.300 8  89002631.363 6  21735340.582 6  21735334.916 6
  21735340.087 7
  22784471.522 7 119733363.980 7  93298826.952 5  22784475.672 5  22784471.580 5
  22784475.893 7
  25682873.273 5 134964414.891 5 105167103.714 1  25682881.971 1  25682872.334 1

  24736677.239 6 129992070.867 6 101292552.669 3  24736693.783 3  24736676.944 3

  20561240.556 8 108050297.874 8  84195155.683 6  20561242.006 6  20561240.436 6
  20561242.111 7
  23232510.899 7 122087667.840 7  95133259.634 3  23232514.285 3  23232510.694 3

  20819591.075 8 109407804.049 8  85252929.699 7  20819597.235 7  20819590.449 7
  20819597.935 7
  22578297.553 6 118649755.473 6  92454372.086 4  22578302.499 4  22578297.071 4

  20849399.252 7 111139130.808 7  86441641.133 6
  20849411.134 6
  23459605.712 6 125449231.374 6  97571779.141 5
  23459612.111 5
  21033216.436 7 112553101.979 7  87541234.993 6
  21033222.808 6
  23472275.872 7 125472781.133 7  97589969.844 6
  23472283.453 6
  19732070.085 8 105442246.289 8  82010686.599 7
  19732080.476 7
  21974888.557 7 117303525.864 7  91236144.900 7
  21974897.699 7
  22482628.749 7 119971679.532 7  93311381.743 6
  22482637.700 6
  22906636.400 8 122363150.121 8  95171366.575 6
  22906646.166 6
  37183701.646 7 195401744.009 7

  38344462.579 7 201501580.855 7

  39194648.626 7 205969285.214 7

 11 11  1  2 17 30.0000000  0 21G02G31G29G05G30G27G12G21G25G09R14R24
                                R17R01R15R18R02R16S20S33S38
  22997756.201 7 120854218.711 7  94172244.335 5  22997757.866 5  22997755.897 5

  24547880.047 6 128999954.009 6 100519462.311 3  24547887.694 3  24547880.043 3
  24547887.530 6
  21733169.697 8 114208609.066 8  88993766.029 6  21733175.172 6  21733169.630 6
  21733175.112 7
  22781775.552 7 119719194.359 7  93287785.695 5  22781779.315 5  22781775.628 5
  22781779.064 6
  25673796.541 5 134916715.469 5 105129935.366 2  25673804.997 2  25673795.625 2

  24747183.820 6 130047282.063 6 101335574.396 3  24747199.583 3  24747183.476 3

  20561149.087 8 108049818.137 8  84194782.029 6  20561150.338 6  20561148.962 6
  20561150.208 6
  23222145.699 7 122033196.841 7  95090814.941 5  23222149.158 5  23222145.226 5

  20814486.200 8 109380978.315 8  85232026.584 7  20814492.515 7  20814485.561 7
  20814493.171 7
  22586772.172 7

  20859027.855 7 111190453.356 7  86481556.634 6
  20859039.638 6
  23465363.969 6 125480023.255 6  97595728.393 5
  23465371.177 5
  21036126.183 7 112568677.738 7  87553349.487 6
  21036133.825 6
  23472776.038 7 125475456.205 7  97592050.501 6
  23472783.145 6
  19729241.642 8 105427129.569 8  81998929.159 7
  19729251.502 7
  21972220.639 7 117289284.070 7  91225067.915 7
  21972229.712 7
  22475758.185 7 119935016.962 7  93282866.511 7
  22475767.063 7
  22896149.828 7 122307134.388 7  95127798.824 6
  22896158.689 6
  37183271.780 7 195399494.239 7

  38344228.136 6 201500360.183 6

  39194263.275 7 205967239.546 7

 11 11  1  2 17 45.0000000  0 21G02G31G29G05G30G27G12G21G25G09R14R24
                                R17R01R15R18R02R16S20S33S38
  23006963.151 7 120902603.633 7  94209946.886 5  23006965.263 5  23006962.843 5

  24539356.619 6 128955161.752 6 100484559.079 3  24539364.334 3  24539356.606 3
  24539364.022 6
  21731008.667 8 114197254.863 8  88984918.646 6  21731014.354 6  21731008.609 6
  21731014.500 7
  22779097.804 7 119705127.824 7  93276824.766 5  22779102.092 5  22779097.871 5
  22779102.303 6
  25664714.399 5 134868987.624 5 105092744.820 2  25664722.551 2  25664713.460 2

  24757684.464 7 130102462.745 7 101378572.469 3  24757699.435 3  24757684.089 3

  20561076.945 8 108049440.628 8  84194488.262 7  20561078.219 7  20561076.811 7
  20561078.301 7
  23211791.218 7 121978784.916 7  95048415.908 4  23211795.210 4  23211790.780 4

  20809394.719 8 109354222.074 8  85211177.615 7  20809401.063 7  20809394.098 7
  20809401.481 7
  22595255.070 7 118738867.830 7  92523815.829 5  22595260.761 5  22595254.507 5

  20868676.590 8 111241883.657 8  86521557.699 7
  20868688.246 7
  23471113.913 6 125510773.099 6  97619644.926 5
  23471121.109 5
  21039039.237 7 112584262.424 7  87565470.916 6
  21039045.476 6
  23473305.553 7 125478287.949 7  97594252.973 6
  23473313.040 6
  19726450.826 8 105412218.248 8  81987331.493 7
  19726460.985 7
  21969561.475 7 117275088.235 7  91214026.797 7
  21969570.443 7
  22468903.798 7 119898437.214 7  93254415.617 7
  22468912.016 7
  22885682.180 8 122251212.653 8  95084310.462 7
  22885690.974 7
  37182842.960 6 195397243.927 6

  38343995.357 6 201499139.805 6

  39193874.566 7 205965194.581 7

 11 11  1  2 18  0.0000000  0 20G02G31G29G05G30G27G12G25G09R14R24R17
                                R01R15R18R02R16S20S33S38
  23016177.147 7 120951023.059 7  94247676.299 5  23016179.229 5  23016176.799 5

  24530850.243 6 128910458.507 6 100449725.197 4  24530857.873 4  24530850.217 4
  24530858.605 6
  21728852.641 8 114185923.636 8  88976089.151 6  21728857.923 6  21728852.583 6
  21728858.034 7
  22776440.995 7 119691164.385 7  93265944.188 5  22776444.463 5  22776441.057 5
  22776445.275 6
  25655626.310 5 134821231.225 5 105055532.072 2  25655634.675 2  25655625.367 2

  24768178.814 7 130157612.081 7 101421546.064 3  24768193.269 3  24768178.417 3

  20561024.660 8 108049163.317 8  84194271.894 6  20561025.137 6  20561024.540 6
  20561025.935 7
  20804316.266 8 109327535.491 8  85190382.924 7  20804322.713 7  20804315.645 7
  20804323.405 7
  22603745.895 6 118783487.957 6  92558584.680 3  22603751.956 3  22603745.372 3

  20878344.680 7 111293422.676 7  86561644.727 6
  20878356.898 6
  23476857.097 6 125541480.919 6  97643528.887 5
  23476863.047 5
  21041953.128 7 112599855.353 7  87577598.777 6
  21041959.577 6
  23473865.157 7 125481276.554 7  97596577.445 6
  23473872.480 6
  19723699.131 8 105397512.082 8  81975893.367 7
  19723708.870 7
  21966910.189 7 117260937.654 7  91203020.803 7
  21966919.238 7
  22462063.291 7 119861940.661 7  93226029.509 6
  22462072.429 6
  22875230.137 5 122195384.603 5  95040889.363 5
  22875240.993 5
  37182411.350 7 195394993.000 7

  38343764.411 7 201497919.314 7

  39193483.777 7 205963149.810 7

 11 11  1  2 18 15.0000000  0 21G02G31G29G05G30G27G12G21G25G09R14R24
                                R17R01R15R18R02R16S20S33S38
  23025397.520 7 120999476.650 7  94285432.339 5  23025399.415 5  23025397.167 5

  24522360.459 7 128865844.803 7 100414961.134 4  24522368.484 4  24522360.428 4
  24522368.527 6
  21726700.901 8 114174615.299 8  88967277.501 6  21726705.762 6  21726700.843 6
  21726706.041 7
  22773803.765 7 119677304.459 7  93255144.254 5  22773806.810 5  22773803.814 5
  22773808.071 6
  25646533.032 6 134773446.655 6 105018297.347 2  25646541.796 2  25646532.076 2

  24778667.098 6 130212730.054 6 101464495.217 3  24778682.265 3  24778666.692 3

  20560991.076 8 108048988.818 8  84194136.040 6  20560991.863 6  20560990.951 6
  20560992.562 7
  23191116.715 5 121870149.585 5  94963765.500 1  23191121.021 1  23191116.094 1

  20799251.357 8 109300918.938 8  85169642.803 7  20799257.581 7  20799250.731 7
  20799258.405 7
  22612244.376 5 118828150.290 5  92593386.558 4  22612251.017 4  22612243.974 4

  20888033.135 7 111345068.056 7  86601813.490 7
  20888044.862 7
  23482590.490 6 125572146.676 6  97667380.042 6
  23482599.015 6
  21044868.996 7 112615456.296 7  87589732.883 6
  21044875.916 6
  23474452.902 7 125484422.084 7  97599024.043 6
  23474460.489 6
  19720985.344 8 105383011.602 8  81964615.231 7
  19720995.196 7
  21964267.389 7 117246832.208 7  91192049.952 7
  21964277.242 7
  22455239.192 7 119825527.985 7  93197708.581 7
  22455248.665 7
  22864796.726 7 122139651.276 7  94997537.241 7
  22864806.255 7
  37181985.898 7 195392741.112 7

  38343533.926 6 201496699.575 6

  39193098.252 7 205961103.857 7

 11 11  1  2 18 30.0000000  0 21G02G31G29G05G30G27G12G21G25G09R14R24
                                R17R01R15R18R02R16S20S33S38
  23034624.002 7 121047964.099 7  94323214.779 5  23034625.951 5  23034623.645 5

  24513888.191 7 128821321.003 7 100380267.100 4  24513895.994 4  24513888.151 4
  24513895.745 6
  21724553.259 8 114163329.736 8  88958483.596 6  21724557.805 6  21724553.206 6
  21724558.498 7
  22771185.861 7 119663548.360 7  93244425.240 5  22771189.220 5  22771185.892 5
  22771190.899 6
  25637435.319 5 134725634.017 5 104981040.735 2  25637443.364 2  25637434.425 2

  24789149.693 6 130267816.463 6 101507419.763 3  24789165.519 3  24789149.287 3

  20560977.474 8 108048916.433 8  84194079.679 6  20560978.238 6  20560977.345 6
  20560978.545 7
  23180797.224 7 121815919.544 7  94921509.065 4  23180799.841 4  23180796.840 4

  20794199.667 8 109274372.753 8  85148957.506 7  20794205.806 7  20794199.041 7
  20794206.620 7
  22620752.389 8 118872853.574 8  92628220.178 5  22620758.078 5  22620751.983 5

  20897741.776 8 111396819.263 8  86642064.342 7
  20897753.421 7
  23488317.448 6 125602770.461 6  97691198.579 6
  23488324.650 6
  21047785.191 7 112631065.537 7  87601873.405 6
  21047791.776 6
  23475070.654 7 125487724.749 7  97601592.813 6
  23475079.008 6
  19718310.127 8 105368716.775 8  81953497.045 7
  19718320.453 7
  21961633.417 7 117232771.957 7  91181114.188 7
  21961643.230 7
  22448431.331 7 119789199.696 7  93169453.301 6
  22448440.698 6
  22854380.685 8 122084012.782 8  94954263.100 7
  22854389.803 7
  37181556.895 7 195390489.856 7

  38343299.948 7 201495477.690 7

  39192705.661 7 205959057.562 7

 11 11  1  2 18 45.0000000  0 21G02G31G29G05G30G27G12G21G25G09R14R24
                                R17R01R15R18R02R16S20S33S38
  23043857.111 7 121096484.944 7  94361023.229 5  23043858.993 5  23043856.754 5

  24505432.716 6 128776887.237 6 100345643.253 4  24505440.330 4  24505432.667 4
  24505440.655 5
  21722409.826 8 114152066.738 8  88949707.269 6  21722414.252 6  21722409.764 6
  21722415.374 7
  22768588.027 7 119649895.887 7  93233786.975 5  22768591.230 5  22768588.071 5
  22768592.819 6
  25628331.259 6 134677793.474 6 104943762.387 2  25628339.444 2  25628330.370 2

  24799626.352 6 130322870.965 6 101550319.447 3  24799642.267 3  24799625.946 3

  20560982.977 8 108048947.004 8  84194103.825 6  20560983.935 6  20560982.852 6
  20560984.256 7
  23170487.898 6 121761750.005 6  94879299.154 3  23170490.412 3  23170487.317 3

  20789161.759 8 109247897.161 8  85128327.221 7  20789167.534 7  20789161.147 7
  20789168.404 7
  22629266.899 6 118917595.934 6  92663084.874 3  22629272.923 3  22629266.390 3

  20907470.363 7 111448674.884 7  86682395.886 6
  20907481.730 6
  23494036.558 6 125633352.314 6  97714984.466 5
  23494044.152 5
  21050704.000 7 112646682.279 7  87614019.766 6
  21050710.195 6
  23475718.298 7 125491184.516 7  97604283.719 6
  23475725.297 6
  19715673.373 8 105354627.202 8  81942538.502 7
  19715683.709 7
  21959007.945 7 117218756.309 7  91170213.103 7
  21959017.587 7
  22441638.795 7 119752956.162 7  93141263.959 7
  22441648.279 7
  22843982.054 7 122028469.550 7  94911063.038 6
  22843991.649 6
  37181126.895 7 195388238.571 7

  38343067.553 7 201494258.213 7

  39192320.896 7 205957013.254 7

 11 11  1  2 19  0.0000000  0 21G02G31G29G05G30G27G12G21G25G09R14R24
                                R17R01R15R18R02R16S20S33S38
  23053096.844 7 121145039.028 7  94398857.577 5  23053098.819 5  23053096.460 5

  24496994.388 7 128732543.882 7 100311089.848 3  24497002.025 3  24496994.330 3
  24497003.403 5
  21720270.975 8 114140826.313 8  88940948.525 6  21720275.323 6  21720270.913 6
  21720276.360 7
  22766009.990 7 119636347.935 7  93223230.136 5  22766013.049 5  22766010.048 5
  22766014.179 6
  25619222.259 6 134629925.235 6 104906462.448 2  25619230.302 2  25619221.401 2

  24810096.687 6 130377893.272 6 101593194.105 3  24810112.303 3  24810096.263 3

  20561008.202 8 108049079.032 8  84194206.699 6  20561008.798 6  20561008.073 6
  20561009.564 7
  23160190.789 7 121707641.305 7  94837135.396 4  23160193.352 4  23160189.971 4

  20784137.084 8 109221492.535 8  85107752.230 7  20784142.826 7  20784136.467 7
  20784143.745 7
  22637789.230 7 118962380.194 7  92697981.699 4  22637795.747 4  22637788.676 4

  20917219.178 7 111500635.386 7  86722808.813 5
  20917230.190 5
  23499748.384 6 125663892.177 6  97738737.749 5
  23499754.986 5
  21053623.694 7 112662306.558 7  87626171.993 6
  21053629.316 6
  23476394.812 6 125494801.608 6  97607097.044 6
  23476403.756 6
  19713075.491 8 105340744.289 8  81931740.699 8
  19713085.666 8
  21956390.950 7 117204785.296 7  91159346.761 7
  21956400.743 7
  22434862.874 7 119716798.164 7  93113141.156 6
  22434872.804 6
  22833603.167 7 121973022.757 7  94867937.887 5
  22833612.861 5
  37180699.578 7 195385986.767 7

  38342834.345 6 201493038.841 6

  39191928.109 7 205954967.509 7

 11 11  1  2 19 15.0000000  0 21G02G31G29G05G30G27G12G21G25G09R14R24
                                R17R01R15R18R02R16S20S33S38
  23062342.487 7 121193626.040 7  94436717.609 5  23062344.475 5  23062342.085 5

  24488573.498 6 128688291.311 6 100276607.193 4  24488581.172 4  24488573.440 4
  24488581.055 6
  21718136.097 8 114129608.342 8  88932207.285 6  21718140.781 6  21718136.035 6
  21718141.445 7
  22763451.621 7 119622904.724 7  93212754.917 5  22763454.842 5  22763451.697 5
  22763456.390 6
  25610107.643 6 134582029.456 6 104869141.039 3  25610116.089 3  25610106.789 3

  24820560.629 6 130432883.058 6 101636043.477 3  24820575.940 3  24820560.205 3

  20561052.698 8 108049314.105 8  84194390.020 7  20561053.581 7  20561052.573 7
  20561053.509 7
  23149906.560 6 121653592.680 6  94795020.003 3  23149907.654 3  23149905.706 3

  20779125.848 8 109195159.097 8  85087232.709 7  20779131.814 7  20779125.222 7
  20779132.382 7
  22646319.120 6 119007204.771 6  92732909.709 3  22646325.707 3  22646318.584 3

  20926986.129 7 111552702.122 7  86763305.416 6
  20926997.940 6
  23505451.184 6 125694389.978 6  97762458.343 5
  23505458.056 5
  21056544.710 7 112677938.028 7  87638329.817 6
  21056550.225 6
  23477100.693 6 125498576.083 6  97610032.801 5
  23477108.883 5
  19710515.843 8 105327067.069 8  81921102.872 7
  19710525.905 7
  21953781.649 7 117190858.854 7  91148515.024 7
  21953791.528 7
  22428103.826 7 119680726.159 7  93085085.185 6
  22428112.671 6
  22823240.470 7 121917672.100 7  94824887.972 6
  22823251.363 6
  37180269.953 7 195383735.333 7

  38342602.388 7 201491818.929 7

  39191541.224 7 205952921.381 7

 11 11  1  2 19 30.0000000  0 21G02G31G29G05G30G27G12G21G25G09R14R24
                                R17R01R15R18R02R16S20S33S38
  23071594.615 7 121242245.739 7  94474603.106 5  23071596.379 5  23071594.195 5

  24480170.016 6 128644129.780 6 100242195.463 3  24480177.885 3  24480169.958 3
  24480178.107 6
  21716005.777 8 114118412.620 8  88923483.374 6  21716010.455 6  21716005.710 6
  21716010.872 7
  22760913.631 7 119609566.289 7  93202361.341 5  22760916.821 5  22760913.724 5
  22760917.956 6
  25600988.859 6 134534106.266 6 104831798.297 3  25600996.527 3  25600988.014 3

  24831017.563 6 130487839.610 6 101678866.824 3  24831033.549 3  24831017.152 3

  20561117.022 8 108049651.731 8  84194652.897 6  20561117.977 6  20561116.893 6
  20561118.634 7
  23139632.941 6 121599605.821 6  94752952.772 3  23139634.750 3  23139632.078 3

  20774128.299 8 109168897.148 8  85066768.894 7  20774134.472 7  20774127.678 7
  20774135.193 7
  22654856.386 7 119052069.883 7  92767869.648 4  22654863.170 4  22654855.832 4

  20936773.295 8 111604871.978 8  86803881.620 7
  20936785.066 7
  23511145.951 6 125724845.694 6  97786146.180 6
  23511153.324 6
  21059467.058 7 112693576.814 7  87650493.351 6
  21059474.194 6
  23477836.247 6 125502507.947 6  97613090.919 5
  23477843.426 5
  19707994.786 8 105313595.539 8  81910625.030 7
  19708005.247 7
  21951182.608 7 117176976.536 7  91137717.623 7
  21951190.973 7
  22421360.179 7 119644740.520 7  93057096.425 7
  22421368.953 7
  22812897.462 8 121862418.508 8  94781913.271 6
  22812906.222 6
  37179846.477 7 195381483.091 7

  38342368.219 6 201490598.651 6

  39191149.537 7 205950878.155 7

 11 11  1  2 19 45.0000000  0 21G02G31G29G05G30G27G12G21G25G09R14R24
                                R17R01R15R18R02R16S20S33S38
  23080852.837 7 121290897.471 7  94512513.549 5  23080854.587 5  23080852.404 5

  24471784.158 6 128600059.542 6 100207854.907 4  24471792.139 4  24471784.100 4
  24471791.451 6
  21713879.562 8 114107239.011 8  88914776.698 6  21713884.140 6  21713879.500 6
  21713884.752 7
  22758395.049 7 119596332.861 7  93192049.597 5  22758398.743 5  22758395.133 5
  22758399.777 6
  25591863.959 6 134486155.826 6 104794434.279 3  25591871.466 3  25591863.128 3

  24841469.703 6 130542763.246 6 101721664.694 3  24841485.672 3  24841469.355 3

  20561200.647 8 108050092.309 8  84194996.328 6  20561201.855 6  20561200.513 6
  20561202.151 7
  23129371.008 6 121545681.316 6  94710934.421 2  23129373.154 2  23129370.119 2

  20769144.370 8 109142706.921 8  85046360.973 7  20769150.848 7  20769143.749 7
  20769151.026 8
  22663401.872 7 119096979.536 7  92802865.692 5  22663407.278 5  22663401.564 5

  20946580.096 7 111657144.575 7  86844537.426 6
  20946592.233 6
  23516834.128 6 125755259.182 6  97809801.143 6
  23516842.269 6
  21062390.977 7 112709222.357 7  87662662.133 6
  21062397.405 6
  23478601.655 6 125506597.186 6  97616271.477 6
  23478610.014 6
  19705512.690 8 105300330.928 8  81900308.117 8
  19705522.961 8
  21948589.590 7 117163138.269 7  91126954.546 7
  21948599.016 7
  22414632.561 7 119608841.865 7  93029175.289 7
  22414641.459 7
  22802571.393 7 121807261.809 7  94739013.886 7
  22802580.898 7
  37179414.715 7 195379231.243 7

  38342141.597 7 201489379.658 7

  39190761.131 7 205948831.628 7

 11 11  1  2 20  0.0000000  0 21G02G31G29G05G30G27G12G21G25G09R14R24
                                R17R01R15R18R02R16S20S33S38
  23090117.215 7 121339581.025 7  94550448.790 5  23090118.810 5  23090116.773 5

  24463415.533 6 128556080.842 6 100173585.584 3  24463423.587 3  24463415.462 3
  24463423.313 5
  21711757.250 8 114096087.440 8  88906087.193 6  21711761.850 6  21711757.192 6
  21711762.845 7
  22755896.667 7 119583204.690 7  93181819.860 5  22755900.760 5  22755896.747 5
  22755901.653 6
  25582734.073 6 134438178.320 6 104757049.210 3  25582741.790 3  25582733.260 3

  24851914.684 6 130597652.914 6 101764435.955 3  24851931.011 3  24851914.345 3

  20561304.297 8 108050636.422 8  84195420.464 6  20561305.320 6  20561304.163 6
  20561305.331 7
  23119120.947 7 121491819.476 7  94668964.765 5  23119122.527 5  23119120.134 5

  20764174.229 8 109116588.712 8  85026009.174 7  20764180.828 7  20764173.608 7
  20764180.956 7
  22671954.511 7 119141922.670 7  92837886.152 5  22671959.596 5  22671953.885 5

  20956405.881 8 111709520.099 8  86885273.385 7
  20956417.926 7
  23522512.013 5 125785630.831 5  97833423.535 6
  23522521.235 6
  21065315.980 7 112724874.518 7  87674836.021 6
  21065321.875 6
  23479395.525 6 125510844.082 6  97619574.610 6
  23479404.773 6
  19703069.245 8 105287273.198 8  81890152.105 7
  19703079.412 7
  21946005.402 7 117149343.688 7  91116225.398 7
  21946014.402 7
  22407921.437 7 119573030.650 7  93001322.173 6
  22407929.936 6
  22792263.817 7 121752203.403 7  94696191.079 7
  22792272.647 7
  37178988.873 7 195376980.123 7

  38341907.525 7 201488161.047 7

  39190371.108 7 205946785.860 7

 11 11  1  2 20 15.0000000  0 21G02G31G29G05G30G27G12G21G25G09R14R24
                                R17R01R15R18R02R16S20S33S38
  23099387.240 7 121388295.928 7  94588408.451 5  23099388.975 5  23099386.775 5

  24455064.085 6 128512194.161 6 100139388.119 3  24455072.385 3  24455064.014 3
  24455071.938 6
  21709639.239 8 114084957.747 8  88897414.733 6  21709643.853 6  21709639.181 6
  21709644.802 7
  22753418.466 7 119570181.669 7  93171672.068 5  22753422.511 5  22753418.528 5
  22753422.674 6
  25573598.681 6 134390173.830 6 104719643.069 3  25573606.820 3  25573597.850 3

  24862353.511 6 130652508.866 6 101807180.966 3  24862369.625 3  24862353.172 3

  20561427.395 8 108051283.238 8  84195924.523 6  20561428.280 6  20561427.266 6
  20561428.735 7
  23108882.416 6 121438019.452 6  94627043.181 4  23108884.390 4  23108881.607 4

  20759217.699 8 109090542.767 8  85005713.682 7  20759224.208 7  20759217.078 7
  20759224.625 7
  22680514.047 7 119186903.439 7  92872935.888 3  22680518.943 3  22680513.368 3

  20966251.597 7 111761997.465 7  86926088.320 6
  20966263.134 6
  23528185.862 6 125815960.154 6  97857013.046 5
  23528191.156 5
  21068241.264 7 112740533.067 7  87687014.939 6
  21068248.075 6
  23480220.464 7 125515248.477 7  97623000.282 5
  23480228.140 5
  19700663.696 8 105274421.369 8  81880156.266 7
  19700674.162 7
  21943429.589 7 117135592.269 7  91105529.891 7
  21943438.466 7
  22401226.625 7 119537307.379 7  92973537.474 7
  22401235.443 7
  22781975.410 7 121697243.139 7  94653444.308 6
  22781984.936 6
  37178560.555 7 195374730.091 7

  38341675.206 7 201486941.869 7

  39189978.673 7 205944741.077 7

 11 11  1  2 20 30.0000000  0 21G02G31G29G05G30G27G12G21G25G09R14R24
                                R17R01R15R18R02R16S20S33S38
  23108663.017 7 121437041.931 7  94626392.362 5  23108665.007 5  23108662.535 5

  24446729.539 5 128468399.397 5 100105262.294 3  24446738.595 3  24446729.455 3
  24446738.035 6
  21707525.584 8 114073849.872 8  88888759.273 6  21707530.157 6  21707525.531 6
  21707531.134 7
  22750960.776 7 119557264.358 7  93161606.648 5  22750964.196 5  22750960.816 5
  22750964.939 6
  25564458.565 6 134342142.506 6 104682216.038 3  25564466.595 3  25564457.711 3

  24872785.197 6 130707330.626 6 101849899.450 3  24872801.746 3  24872784.844 3

  20561570.221 8 108052032.916 8  84196508.500 6  20561570.711 6  20561570.101 6
  20561571.666 7
  23098656.982 7 121384281.468 7  94585169.400 4  23098658.312 4  23098656.187 4

  20754275.083 8 109064569.389 8  84985474.723 7  20754281.406 7  20754274.462 7
  20754282.064 7
  22689081.071 7 119231923.017 7  92908016.041 5  22689086.179 5  22689080.593 5

  20976115.282 7 111814577.017 7  86966983.152 7
  20976127.826 7
  23533848.688 6 125846247.370 6  97880569.781 5
  23533854.538 5
  21071169.354 7 112756197.548 7  87699198.425 6
  21071174.282 6
  23481073.753 6 125519810.590 6  97626548.570 5
  23481080.437 5
  19698297.375 8 105261776.461 8  81870321.346 7
  19698307.896 7
  21940861.012 8 117121884.751 8  91094868.514 7
  21940870.290 7
  22394548.614 7 119501672.625 7  92945821.607 7
  22394557.788 7
  22771705.088 6 121642381.407 6  94610774.470 6
  22771712.560 6
  37178134.096 6 195372479.031 6

  38341442.186 6 201485721.788 6

  39189594.069 7 205942695.574 7

 11 11  1  2 20 45.0000000  0 21G02G31G29G05G30G27G12G21G25G09R14R24
                                R17R01R15R18R02R16S20S33S38
  23117945.025 7 121485818.872 7  94664400.382 5  23117946.938 5  23117944.520 5

  24438412.723 6 128424697.149 6 100071208.548 3  24438422.043 3  24438412.652 3
  24438421.750 6
  21705416.187 8 114062763.662 8  88880120.700 6  21705420.602 6  21705416.134 6
  21705421.626 7
  22748522.640 7 119544452.960 7  93151623.743 5  22748526.223 5  22748522.689 5
  22748526.952 6
  25555314.240 6 134294084.638 6 104644768.326 3  25555321.640 3  25555313.364 3

  24883211.223 6 130762117.593 6 101892590.669 3  24883226.663 3  24883210.879 3

  20561732.661 8 108052886.540 8  84197173.498 6  20561733.317 6  20561732.545 6
  20561733.976 7
  23088442.830 7 121330606.200 7  94543344.664 4  23088444.639 4  23088442.048 4

  20749346.519 8 109038668.885 8  84965292.556 7  20749352.721 7  20749345.893 7
  20749353.110 7
  22697654.438 7

  20985998.056 8 111867258.876 8  87007957.862 7
  20986010.742 7
  23539504.903 6 125876492.358 6  97904093.756 5
  23539512.085 5
  21074098.206 7 112771868.062 7  87711386.635 6
  21074104.674 6
  23481955.856 6 125524530.380 6  97630219.544 5
  23481963.687 5
  19695970.409 8 105249338.522 8  81860647.408 7
  19695980.531 7
  21938301.323 7 117108219.731 7  91084240.234 7
  21938310.731 7
  22387887.092 7 119466126.751 7  92918174.906 7
  22387895.935 7
  22761453.334 7 121587619.355 7  94568181.951 6
  22761461.387 6
  37177701.601 7 195370229.249 7

  38341206.679 7 201484502.531 7

  39189205.119 7 205940649.417 7

 11 11  1  2 21  0.0000000  0 21G02G31G29G05G30G27G12G21G25G09R14R24
                                R17R01R15R18R02R16S20S33S38
  23127232.845 7 121534626.290 7  94702432.144 5  23127234.551 5  23127232.300 5

  24430114.882 6 128381087.861 6 100037227.145 3  24430123.449 3  24430114.802 3
  24430124.238 6
  21703310.670 8 114051699.099 8  88871499.005 6  21703315.161 6  21703310.612 6
  21703315.924 7
  22746105.002 7 119531747.784 7  93141723.621 5  22746108.672 5  22746105.051 5
  22746109.230 6
  25546163.634 6 134246000.340 6 104607300.006 3  25546171.783 3  25546162.731 3

  24893630.701 7 130816869.991 7 101935255.033 3  24893645.396 3  24893630.366 3

  20561914.904 8 108053844.097 8  84197919.652 6  20561915.812 6  20561914.775 6
  20561916.198 7
  23078240.290 6 121276994.405 6  94501569.612 4  23078242.578 4  23078239.499 4

  20744431.647 8 109012841.614 8  84945167.455 7  20744437.916 7  20744431.017 7
  20744438.356 7
  22706236.589 6 119322073.345 6  92978263.469 5  22706242.381 5  22706236.004 5

  20995900.034 7 111920041.131 7  87049010.774 7
  20995912.211 7
  23545153.343 6 125906695.191 6  97927584.888 5
  23545160.398 5
  21077027.386 7 112787544.301 7  87723579.273 6
  21077034.145 6
  23482868.933 6 125529408.044 6  97634013.326 5
  23482876.594 5
  19693681.037 8 105237107.721 8  81851134.561 8
  19693691.812 8
  21935749.286 7 117094597.689 7  91073645.381 7
  21935758.477 7
  22381242.629 7 119430670.656 7  92890597.970 6
  22381252.709 6
  22751219.373 6 121532957.133 6  94525667.438 5
  22751228.921 5
  37177274.225 7 195367978.478 7

  38340976.703 7 201483282.628 7

  39188816.083 7 205938603.878 7

 11 11  1  2 21 15.0000000  0 21G02G31G29G05G30G27G12G21G25G09R14R24
                                R17R01R15R18R02R16S20S33S38
  23136526.107 7 121583463.900 7  94740487.437 5  23136527.866 5  23136525.540 5

  24421834.123 7 128337571.794 7 100003318.396 4  24421842.608 4  24421834.043 4
  24421843.057 6
  21701209.009 8 114040656.166 8  88862894.159 6  21701213.838 6  21701208.951 6
  21701214.562 7
  22743707.419 7 119519149.034 7  93131906.442 5  22743710.965 5  22743707.495 5
  22743711.591 6
  25537008.934 6 134197889.863 6 104569811.317 3  25537016.565 3  25537008.018 3

  24904042.956 7 130871587.112 7 101977891.936 4  24904057.520 4  24904042.635 4

  20562117.084 8 108054904.671 8  84198745.584 6  20562117.921 6  20562116.968 6
  20562118.841 7
  23068049.658 7 121223446.203 7  94459844.267 4  23068052.108 4  23068048.863 4

  20739530.843 8 108987087.849 8  84925099.636 7  20739537.072 7  20739530.213 7
  20739537.716 7
  22714824.784 6 119367204.081 6  93013430.333 4  22714831.317 4  22714824.226 4

  21005820.978 8 111972923.731 8  87090141.503 8
  21005833.288 8
  23550792.789 6 125936856.136 6  97951043.439 5
  23550800.335 5
  21079956.965 7 112803226.248 7  87735776.379 6
  21079963.343 6
  23483810.841 6 125534443.648 6  97637929.967 5
  23483817.937 5
  19691430.881 8 105225083.519 8  81841782.416 8
  19691441.485 8
  21933205.938 7 117081018.392 7  91063083.798 7
  21933214.775 7
  22374616.016 7 119395304.563 7  92863091.059 7
  22374624.622 7
  22741004.423 7 121478395.577 7  94483231.159 7
  22741013.545 7
  37176846.242 7 195365727.875 7

  38340747.980 7 201482063.015 7

  39188428.375 7 205936559.604 7

 11 11  1  2 21 30.0000000  0 21G02G31G29G05G30G27G12G21G25G09R14R24
                                R17R01R15R18R02R16S20S33S38
  23145825.469 7 121632331.334 7  94778565.966 5  23145826.936 5  23145824.893 5

  24413571.116 7 128294149.123 7  99969482.472 4  24413579.694 4  24413571.018 4
  24413579.932 6
  21699111.814 8 114029634.661 8  88854306.022 6  21699116.651 6  21699111.765 6
  21699117.108 7
  22741330.440 7 119506656.755 7  93122172.212 5  22741333.529 5  22741330.529 5
  22741334.597 6
  25527848.769 6 134149753.297 6 104532302.271 3  25527856.424 3  25527847.862 3

  24914448.512 6 130926268.574 6 102020500.899 3  24914463.263 3  24914448.168 3

  20562338.951 8 108056070.788 8  84199654.386 6  20562340.192 6  20562338.831 6
  20562340.407 7
  23057871.840 6 121169961.649 6  94418168.414 4  23057873.684 4  23057871.058 4

  20734644.049 8 108961407.856 8  84905089.288 7  20734650.263 7  20734643.415 7
  20734650.753 7
  22723420.332 6 119412371.916 6  93048626.089 3  22723426.760 3  22723419.662 3

  21015760.565 7 112025904.655 7  87131348.166 7
  21015772.593 7
  23556425.361 6 125966974.819 6  97974469.111 5
  23556432.476 5
  21082889.123 7 112818912.879 7  87747977.092 6
  21082894.188 6
  23484780.909 6 125539637.218 6  97641969.435 5
  23484790.603 5
  19689219.636 8 105213266.773 8  81832591.629 7
  19689229.977 7
  21930669.949 8 117067481.243 8  91052554.924 7
  21930678.612 7
  22368004.574 7 119360029.123 7  92835654.674 7
  22368014.636 7
  22730809.771 7 121423934.450 7  94440873.037 6
  22730818.257 6
  37176417.292 7 195363476.323 7

  38340513.170 7 201480844.967 7

  39188037.542 7 205934513.380 7

 11 11  1  2 21 45.0000000  0 21G02G31G29G05G30G27G12G21G25G09R14R24
                                R17R01R15R18R02R16S20S33S38
  23155130.106 7 121681228.238 7  94816667.451 5  23155131.703 5  23155129.525 5

  24405326.397 7 128250820.313 7  99935719.743 4  24405334.688 4  24405326.313 4
  24405334.551 6
  21697018.539 8 114018634.372 8  88845734.413 6  21697023.418 6  21697018.495 6
  21697023.627 7
  22738973.295 7 119494271.299 7  93112521.204 5  22738976.756 5  22738973.384 5
  22738976.947 6
  25518683.786 6 134101590.793 6 104494773.028 3  25518691.275 3  25518682.879 3

  24924846.409 6 130980914.580 6 102063082.412 3  24924862.321 3  24924846.007 3

  20562580.735 7 108057339.803 7  84200642.914 6  20562581.820 6  20562580.610 6
  20562582.422 7
  23047706.238 6 121116540.208 6  94376541.225 4  23047707.683 4  23047705.438 4

  20729771.424 8 108935801.920 8  84885136.647 7  20729777.554 7  20729770.785 7
  20729778.047 7
  22732022.608 6 119457576.362 6  93083850.140 4  22732028.816 4  22732021.893 4

  21025718.601 8 112078985.952 8  87172633.633 7
  21025730.723 7
  23562050.847 6 125997051.241 6  97997861.981 5
  23562058.761 5
  21085821.880 7 112834604.668 7  87760181.823 6
  21085827.534 6
  23485782.760 6 125544988.743 6  97646131.745 5
  23485790.475 5
  19687047.114 8 105201657.174 8  81823561.952 7
  19687057.616 7
  21928141.477 8 117053986.439 8  91042059.055 7
  21928150.603 7
  22361411.288 7 119324844.719 7  92808289.054 7
  22361420.511 7
  22720632.797 7 121369575.207 7  94398594.288 7
  22720641.228 7
  37175988.594 7 195361225.580 7

  38340279.913 6 201479625.605 6

  39187648.337 7 205932468.006 7

 11 11  1  2 22  0.0000000  0 21G02G31G29G05G30G27G12G21G25G09R14R24
                                R17R01R15R18R02R16S20S33S38
  23164440.864 7 121730154.387 7  94854791.708 5  23164442.314 5  23164440.270 5

  24397098.933 7 128207585.486 7  99902030.214 4  24397107.457 4  24397098.835 4
  24397107.227 6
  21694928.982 8 114007655.214 8  88837179.258 6  21694934.048 6  21694928.929 6
  21694934.196 7
  22736636.836 7 119481992.940 7  93102953.658 5  22736640.306 5  22736636.925 5
  22736641.429 6
  25509514.051 6 134053402.547 6 104457223.723 3  25509521.564 3  25509513.153 3

  24935237.914 6 131035524.463 6 102105635.697 3  24935254.135 3  24935237.445 3

  20562842.434 8 108058713.402 8  84201712.820 6  20562843.612 6  20562842.309 6
  20562843.611 6
  23037552.597 7 121063183.476 7  94334964.894 4  23037553.764 4  23037551.766 4

  20724912.881 8 108910270.297 8  84865241.918 7  20724918.931 7  20724912.251 7
  20724919.607 7
  22740632.321 7 119502816.454 7  93119101.914 4  22740638.236 4  22740631.664 4

  21035695.430 8 112132165.443 8  87213995.126 7
  21035707.941 7
  23567667.055 6 126027085.788 6  98021222.146 5
  23567671.429 5
  21088754.745 7 112850301.849 7  87772390.757 6
  21088761.659 6
  23486814.417 7 125550498.415 7  97650417.067 5
  23486820.623 5
  19684913.285 8 105190255.476 8  81814693.973 7
  19684923.838 7
  21925621.363 8 117040533.326 8  91031595.654 7
  21925630.574 7
  22354834.219 7 119289751.971 7  92780994.792 7
  22354844.063 7
  22710475.370 8 121315317.341 8  94356394.163 7
  22710485.192 7
  37175563.096 7 195358972.859 7

  38340049.146 7 201478406.273 7

  39187259.068 7 205930422.127 7

 11 11  1  2 22 15.0000000  0 21G02G31G29G05G30G27G12G21G25G09R14R24
                                R17R01R15R18R02R16S20S33S38
  23173756.630 7 121779109.416 7  94892938.497 5  23173758.408 5  23173756.036 5

  24388889.696 7 128164445.153 7  99868414.354 4  24388898.094 4  24388889.580 4
  24388897.255 6
  21692844.079 8 113996697.260 8  88828640.629 6  21692848.595 6  21692844.035 6
  21692849.004 7
  22734320.819 7 119469821.794 7  93093469.676 5  22734324.019 5  22734320.926 5
  22734325.611 6
  25500339.037 6 134005188.812 6 104419654.531 3  25500347.078 3  25500338.219 3

  24945623.335 6 131090097.847 6 102148160.473 3  24945639.348 3  24945622.794 3

  20563123.531 8 108060192.883 8  84202865.984 6  20563125.257 6  20563123.411 6
  20563125.012 7
  23027410.872 6 121009891.321 6  94293438.703 4  23027411.941 4  23027410.032 4

  20720068.504 8 108884813.394 8  84845405.398 7  20720074.370 7  20720067.874 7
  20720075.467 7
  22749248.540 5 119548091.889 5  93154381.225 4  22749254.145 4  22749247.906 4

  21045689.223 8 112185443.303 8  87255433.453 8
  21045702.536 8
  23573275.021 5 126057078.105 5  98044549.587 5
  23573282.735 5
  21091689.059 7 112866003.225 7  87784602.940 6
  21091694.963 6
  23487874.861 6 125556166.364 6  97654825.464 5
  23487882.096 5
  19682818.474 8 105179060.928 8  81805987.101 7
  19682828.925 7
  21923108.526 7 117027121.860 7  91021164.605 7
  21923117.379 7
  22348275.584 7 119254751.538 7  92753772.253 7
  22348284.914 7
  22700337.199 7 121261161.677 7  94314273.538 7
  22700345.265 7
  37175133.427 7 195356721.096 7

  38339817.064 7 201477187.125 7

  39186872.989 7 205928376.746 7

 11 11  1  2 22 30.0000000  0 21G02G31G29G05G30G27G12G21G25G09R14R24
                                R17R01R15R18R02R16S20S33S38
  23183077.861 7 121828092.929 7  94931107.471 5  23183080.010 5  23183077.271 5

  24380698.383 7 128121399.535 7  99834872.253 4  24380706.632 4  24380698.290 4
  24380706.307 6
  21690762.645 8 113985760.388 8  88820118.448 6  21690767.256 6  21690762.587 6
  21690767.748 7
  22732024.848 7 119457758.206 7  93084069.493 5  22732028.274 5  22732024.946 5
  22732029.466 6
  25491159.013 6 133956949.701 6 104382065.597 3  25491167.369 3  25491158.226 3

  24956000.335 6 131144634.735 6 102190656.823 3  24956017.483 3  24955999.741 3

  20563425.239 8 108061776.388 8  84204099.798 6  20563426.479 6  20563425.119 6
  20563426.726 6
  23017281.792 7 120956664.128 7  94251963.425 4  23017283.063 4  23017280.965 4

  20715238.382 8 108859431.459 8  84825627.302 7  20715244.244 7  20715237.748 7
  20715245.288 7
  22757870.463 7 119593402.555 7  93189687.690 5  22757876.851 5  22757869.824 5

  21055703.056 8 112238818.268 8  87296947.082 7
  21055715.847 7
  23578878.393 6 126087028.479 6  98067844.342 5
  23578885.360 5
  21094624.352 7 112881709.596 7  87796819.055 6
  21094629.676 6
  23488964.315 7 125561992.495 7  97659356.944 5
  23488971.112 5
  19680762.557 8 105168073.942 8  81797441.675 8
  19680772.860 8
  21920603.914 7 117013751.927 7  91010765.759 7
  21920612.931 7
  22341734.450 7 119219843.651 7  92726621.718 7
  22341742.669 7
  22690218.398 7 121207108.805 7  94272232.920 6
  22690225.178 6
  37174702.188 6 195354468.311 6

  38339581.705 7 201475967.530 7

  39186486.631 7 205926331.745 7

 11 11  1  2 22 45.0000000  0 21G02G31G29G05G30G27G12G21G25G09R14R24
                                R17R01R15R18R02R16S20S33S38
  23192404.460 7 121877104.519 7  94969298.305 5  23192406.742 5  23192403.888 5

  24372525.401 6 128078448.737 6  99801404.046 3  24372533.168 3  24372525.357 3
  24372533.728 5
  21688685.261 8 113974844.357 8  88811612.502 6  21688689.995 6  21688685.208 6
  21688690.759 7
  22729750.096 7 119445802.386 7  93074753.286 5  22729753.225 5  22729750.189 5
  22729754.373 6
  25481975.162 6 133908685.306 6 104344456.906 3  25481983.336 3  25481974.353 3

  24966371.586 6 131199134.800 6 102233124.622 2  24966387.851 2  24966370.978 2

  20563746.464 8 108063464.732 8  84205415.268 6  20563747.765 6  20563746.339 6
  20563748.074 6
  23007165.439 6 120903501.629 6  94210538.376 4  23007166.294 4  23007164.621 4

  20710422.698 8 108834124.651 8  84805907.752 7  20710428.428 7  20710422.081 7
  20710429.459 7
  22766499.843 8 119638748.241 8  93225021.607 5  22766505.924 5  22766499.173 5

  21065734.593 7 112292289.407 7  87338535.255 6
  21065747.391 6
  23584467.650 5 126116936.537 5

  21097560.458 7 112897420.494 7  87809038.662 6
  21097565.955 6
  23490083.219 6 125567976.884 6  97664011.475 5
  23490091.554 5
  19678745.484 8 105157294.796 8  81789057.892 7
  19678755.579 7
  21918106.901 7 117000423.592 7  91000399.300 7
  21918116.711 7
  22335209.275 7 119185028.841 7  92699543.643 7
  22335218.756 7
  22680118.807 7 121153159.094 7  94230272.496 7
  22680126.142 7
  37174274.017 7 195352216.362 7

  38339348.930 6 201474748.340 6

  39186091.854 7 205924285.502 7

 11 11  1  2 23  0.0000000  0 21G02G31G29G05G30G27G12G21G25G09R14R24
                                R17R01R15R18R02R16S20S33S38
  23201735.989 7 121926144.051 7  95007510.943 5  23201738.370 5  23201735.413 5

  24364370.033 6 128035593.159 6  99768010.050 3  24364378.211 3  24364369.989 3
  24364378.545 6
  21686611.704 8 113963949.077 8  88803122.702 6  21686616.678 6  21686611.642 6
  21686617.083 7
  22727495.554 7 119433954.475 7  93065521.161 5  22727498.785 5  22727495.652 5
  22727499.049 6
  25472786.053 6 133860395.909 6 104306828.802 3  25472794.071 3  25472785.240 3

  24976735.525 6 131253597.580 6 102275563.442 2  24976751.320 2  24976734.873 2

  20564087.697 8 108065258.229 8  84206812.729 6  20564089.012 6  20564087.577 6
  20564089.307 7
  22997061.136 7 120850404.327 7  94169164.028 4  22997061.594 4  22997060.323 4

  20705621.254 8 108808893.334 8  84786247.019 7  20705627.050 7  20705620.633 7
  20705628.133 7
  22775135.454 7 119684127.545 7  93260382.502 4  22775141.482 4  22775134.788 4

  21075783.888 7 112345857.143 7  87380198.689 6
  21075797.121 6
                                  98114084.416 5
  23590063.486 5
  21100497.140 7 112913134.996 7  87821261.061 6
  21100503.331 6
  23491231.777 6 125574119.609 6  97668789.182 5
  23491241.462 5
  19676767.480 8 105146723.381 8  81780835.681 7
  19676777.499 7
  21915617.597 7 116987135.850 7  90990064.445 7
  21915626.858 7
  22328702.947 7 119150307.785 7  92672538.393 7
  22328712.241 7
  22670038.188 7 121099313.097 7  94188392.623 6
  22670045.403 6
  37173845.783 6 195349962.621 6

  38339119.053 7 201473530.078 7

  39185703.673 7 205922239.002 7

 11 11  1  2 23 15.0000000  0 21G02G31G29G05G30G27G12G21G25G09R14R24
                                R17R01R15R18R02R16S20S33S38
  23211073.480 7 121975211.354 7  95045745.209 5  23211075.180 5  23211072.895 5

  24356232.904 6 127992833.094 6  99734690.502 3  24356241.271 3  24356232.846 3
  24356240.738 5
  21684542.587 8 113953074.471 8  88794649.008 6  21684547.430 6  21684542.534 6
  21684547.545 7
  22725261.469 7 119422214.773 7  93056373.362 5  22725264.646 5  22725261.589 5
  22725265.467 6
  25463591.804 6 133812081.654 6 104269181.269 3  25463600.165 3  25463591.000 3

  24987092.548 6 131308023.028 6 102317973.174 2  24987107.705 2  24987091.909 2

  20564449.216 8 108067156.452 8  84208291.592 6  20564450.368 6  20564449.091 6
  20564450.853 7
  22986969.708 6 120797372.169 6  94127840.287 4  22986970.273 4  22986968.904 4

  20700834.371 8 108783737.860 8  84766645.380 7  20700840.129 7  20700833.750 7
  20700841.058 7
  22783777.809 6 119729541.327 6  93295769.493 2  22783783.344 2  22783777.018 2

  21085850.793 7 112399520.614 7  87421936.656 7
  21085864.573 7
                                  98137280.718 5
  23595639.352 5
  21103433.563 7 112928853.369 7  87833486.499 6
  21103441.052 6
  23492411.019 6 125580420.783 6  97673690.103 5
  23492418.309 5
  19674827.473 8 105136360.387 8  81772775.585 7
  19674838.106 7
  21913136.108 7 116973888.895 7  90979761.344 7
  21913144.996 7
  22322213.633 7 119115680.939 7  92645606.458 7
  22322222.638 7
  22659977.055 8 121045570.773 8  94146593.216 7
  22659985.212 7
  37173418.144 7 195347709.371 7

  38338884.762 6 201472309.702 6

  39185311.829 7 205920193.407 7

 11 11  1  2 23 30.0000000  0 21G02G31G29G05G30G27G12G21G25G09R14R24
                                R17R01R15R18R02R16S20S33S38
  23220416.069 7 122024305.771 7  95084000.607 5  23220417.428 5  23220415.488 5

  24348114.011 6 127950168.693 6  99701445.432 3  24348122.432 3  24348113.935 3
  24348121.761 5
  21682476.952 8 113942220.416 8  88786191.351 6  21682482.072 6  21682476.885 6
  21682482.018 7
  22723048.140 7 119410583.475 7  93047310.032 5  22723050.965 5  22723048.247 5
  22723052.442 6
  25454393.972 6 133763742.643 6 104231514.482 3  25454401.554 3  25454393.163 3

  24997440.948 6 131362410.236 6 102360353.117 2  24997456.882 2  24997440.305 2

  20564830.614 8 108069160.332 8  84209853.000 6  20564831.843 6  20564830.489 6
  20564832.160 7
  22976890.535 7 120744405.810 7  94086567.876 4  22976891.276 4  22976889.748 4

  20696061.882 8 108758658.344 8  84747102.941 7  20696067.526 7  20696061.261 7
  20696068.680 7
  22792426.352 6 119774989.043 6  93331182.985 2  22792432.007 2  22792425.615 2

  21095936.204 8 112453280.216 8  87463749.710 8
  21095949.163 8
  23601205.633 5 126206251.857 5  98160444.306 5
  23601209.726 5
  21106372.159 7 112944575.333 7  87845714.699 6
  21106378.348 6
  23493618.870 6 125586880.306 6  97678714.196 5
  23493626.979 5
  19672927.114 8 105126205.097 8  81764877.038 7
  19672937.834 7
  21910662.241 7 116960683.219 7  90969490.361 7
  21910671.230 7
  22315742.007 7 119081148.811 7  92618748.197 7
  22315751.580 7
  22649936.212 8 120991933.157 8  94104875.286 7
  22649943.360 7
  37172984.799 7 195345456.494 7

  38338653.516 7 201471090.235 7

  39184924.001 7 205918146.833 7

 11 11  1  2 23 45.0000000  0 21G02G31G29G05G30G27G12G21G25G09R14R24
                                R17R01R15R18R02R16S20S33S38
  23229763.641 7 122073427.055 7  95122276.934 5  23229765.257 5  23229763.078 5

  24340014.268 6 127907600.604 6  99668275.412 3  24340021.355 3  24340014.201 3
  24340021.327 5
  21680415.475 8 113931386.853 8  88777749.665 6  21680420.386 6  21680415.417 6
  21680420.458 7
  22720855.385 7 119399060.767 7  93038331.309 5  22720858.340 5  22720855.501 5
  22720859.480 6
  25445189.967 6 133715379.144 6 104193828.583 3  25445198.043 3  25445189.149 3

  25007783.789 6 131416759.123 6 102402703.054 3  25007799.266 3  25007783.168 3

  20565232.104 8 108071270.001 8  84211496.899 6  20565233.305 6  20565231.984 6
  20565233.645 7
  22966823.787 7 120691506.003 7  94045347.524 4  22966824.742 4  22966822.992 4

  20691303.897 8 108733655.268 8  84727620.066 7  20691309.536 7  20691303.271 7
  20691310.791 7
  22801081.041 8 119820470.057 8  93366622.600 6  22801087.589 6  22801080.398 6

  21106039.277 7 112507133.289 7  87505634.730 7
  21106052.598 7
  23606764.476 5 126235991.559 5  98183575.175 5
  23606770.157 5
  21109310.859 7 112960300.498 7  87857945.405 6
  21109316.919 6
  23494857.394 6 125593498.351 6  97683861.563 5
  23494865.423 5
  19671066.099 8 105116257.828 8  81757140.264 7
  19671076.194 7
  21908195.700 7 116947517.727 7  90959250.684 7
  21908204.400 7
  22309288.596 7 119046712.002 7  92591964.037 6
  22309298.009 6
  22639914.502 7 120938400.659 7  94063239.086 6
  22639922.354 6
  37172556.892 7 195343202.608 7

  38338420.393 6 201469871.551 6

  39184535.260 7 205916101.541 7

 11 11  1  2 24  0.0000000  0 21G02G31G29G05G30G27G12G21G25G09R14R24
                                R17R01R15R18R02R16S20S33S38
  23239115.800 7 122122575.004 7  95160574.048 5  23239118.080 5  23239115.242 5

  24331932.632 6 127865129.018 6  99635180.607 2  24331939.107 2  24331932.574 2
  24331939.220 5
  21678357.468 8 113920573.660 8  88769323.843 6  21678362.447 6  21678357.397 6
  21678363.174 7
  22718683.347 7 119387646.916 7  93029437.428 5  22718686.643 5  22718683.458 5
  22718687.189 6
  25435982.039 6 133666991.369 6 104156123.787 3  25435989.899 3  25435981.194 3

  25018118.762 6 131471069.781 6 102445023.272 3  25018134.264 3  25018118.128 3

  20565653.644 8 108073485.270 8  84213223.059 6  20565655.010 6  20565653.515 6
  20565654.940 7
  22956769.237 7 120638672.442 7  94004178.665 4  22956770.585 4  22956768.419 4

  20686560.518 8 108708728.940 8  84708196.981 7  20686566.253 7  20686559.897 7
  20686567.167 7
  22809741.538 7                                  22809749.077 4  22809741.163 4

  21116160.325 7 112561080.855 7  87547593.425 7
  21116173.722 7
                                  98206673.263 5
  23612323.778 5
  21112250.370 7 112976028.833 7  87870178.564 6
  21112256.375 6
  23496125.723 6 125600274.919 6  97689132.275 5
  23496132.258 5
  19669243.462 8 105106518.891 8  81749565.552 7
  19669253.407 7
  21905737.194 7 116934392.135 7  90949041.926 7
  21905745.872 7
  22302853.723 7 119012370.885 7  92565254.351 7
  22302863.000 7
  22629912.755 8 120884974.202 8  94021685.581 7
  22629919.594 7
  37172129.592 6 195340950.742 6

  38338191.835 6 201468653.014 6

  39184144.959 7 205914055.737 7

 11 11  1  2 24 15.0000000  0 21G02G31G29G05G30G27G12G21G25G09R14R24
                                R17R01R15R18R02R16S20S33S38
  23248473.452 7 122171749.168 7  95198891.590 5  23248475.492 5  23248472.885 5

  24323868.173 6 127822754.172 6  99602161.239 3  24323875.538 3  24323868.093 3
  24323876.542 5
  21676303.889 8 113909780.722 8  88760913.797 6  21676308.470 6  21676303.827 6
  21676309.244 7
  22716532.214 7 119376342.170 7  93020628.557 5  22716535.243 5  22716532.325 5
  22716535.936 6
  25426770.236 6 133618579.402 6 104118400.136 3  25426777.627 3  25426769.360 3

  25028446.629 6 131525341.609 6 102487313.313 3  25028461.632 3  25028445.977 3

  20566095.141 8 108075806.523 8  84215031.893 6  20566096.744 6  20566095.025 6
  20566096.723 7
  22946728.252 7 120585905.331 7  93963061.513 3  22946729.055 3  22946727.412 3

  20681831.912 8 108683879.507 8  84688833.828 7  20681837.418 7  20681831.291 7
  20681838.841 7
  22818409.581 6 119911548.902 6  93437599.603 4  22818416.494 4  22818409.058 4

  21126298.559 7 112615122.757 7  87589625.967 7
  21126312.072 7
                                  98229738.610 5
  23617867.561 5
  21115189.386 7 112991760.204 7  87882414.105 6
  21115196.056 6
  23497421.965 6 125607210.135 6  97694526.366 5
  23497430.233 5
  19667459.693 8 105096988.875 8  81742153.320 7
  19667469.885 7
  21903285.280 7 116921306.392 7  90938864.202 7
  21903294.161 7
  22296436.194 7 118978126.160 7  92538619.597 7
  22296445.047 7
  22619930.681 8 120831653.640 8  93980214.199 7
  22619937.849 7
  37171701.068 6 195338698.385 6

  38337960.822 6 201467433.412 6

  39183758.025 7 205912009.527 7

 11 11  1  2 24 30.0000000  0 21G02G31G29G05G30G27G12G21G25G09R14R24
                                R17R01R15R18R02R16S20S33S38
  23257835.840 7 122220949.350 7  95237229.393 5  23257837.795 5  23257835.273 5

  24315822.301 6 127780476.447 6  99569217.543 3  24315830.820 3  24315822.225 3
  24315831.317 6
  21674253.782 8 113899007.983 8  88752519.496 6  21674258.454 6  21674253.715 6
  21674258.978 7
  22714401.871 7 119365146.792 7  93011904.902 5  22714404.675 5  22714401.978 5
  22714405.498 6
  25417553.080 6 133570143.528 6 104080657.848 3  25417560.563 3  25417552.217 3

  25038766.432 6 131579574.332 6 102529572.819 3  25038781.060 3  25038765.802 3

  20566557.158 8 108078233.166 8  84216922.521 6  20566558.542 6  20566557.042 6
  20566559.182 7
  22936699.604 7 120533205.241 7  93921996.721 5  22936700.842 5  22936698.795 5

  20677117.838 8 108659107.419 8  84669530.935 7  20677123.336 7  20677117.217 7
  20677124.422 7
  22827083.781 7 119957127.366 7  93473114.821 4  22827089.957 4  22827083.634 4

  21136453.985 7 112669257.341 7  87631730.295 7
  21136467.728 7
                                  98252771.372 5
  23623405.459 5
  21118130.379 7 113007494.866 7  87894652.175 6
  21118136.820 6
  23498750.372 6 125614304.124 6  97700043.899 5
  23498758.057 5
  19665715.648 8 105087666.950 8  81734902.953 7
  19665725.722 7
  21900841.260 7 116908260.385 7  90928717.394 7
  21900849.684 7
  22290036.707 7 118943978.183 7  92512060.105 7
  22290046.009 7
  22609969.227 8 120778439.840 8  93938825.905 6
  22609976.292 6
  37171268.863 7 195336447.168 7

  38337731.200 7 201466214.606 7

  39183367.496 7 205909963.526 7

 11 11  1  2 24 45.0000000  0 21G02G31G29G05G30G27G12G21G25G09R14R24
                                R17R01R15R18R02R16S20S33S38
  23267203.234 7 122270175.111 7  95275587.143 5  23267204.994 5  23267202.667 5

  24307796.086 6 127738295.869 6  99536349.452 4  24307804.638 4  24307796.024 4
  24307804.842 6
  21672207.381 8 113888255.307 8  88744140.823 6  21672212.307 6  21672207.319 6
  21672212.983 7
  22712292.026 7 119354060.841 7  93003266.515 5  22712295.098 5  22712292.133 5
  22712295.971 6
  25408331.723 6 133521683.839 6 104042896.990 3  25408338.901 3  25408330.856 3

  25049078.633 5 131633767.438 5 102571801.288 2  25049093.225 2  25049078.066 2

  20567039.323 8 108080766.428 8  84218896.511 6  20567040.632 6  20567039.203 6
  20567041.049 7
  22926683.380 6 120480571.736 6  93880983.577 4  22926685.195 4  22926682.598 4

  20672418.546 8 108634412.812 8  84650288.416 7  20672424.300 7  20672417.925 7
  20672425.061 7
  22835763.360 7 120002737.296 7  93508654.478 4  22835769.583 4  22835763.377 4

  21146627.598 7 112723484.487 7  87673906.544 7
  21146640.937 7
                                  98275771.366 4
  23628935.641 4
  21121070.586 7 113023231.420 7  87906891.777 6
  21121076.481 6
  23500106.829 6 125621556.509 6  97705684.658 6
  23500113.768 6
  19664009.948 8 105078553.163 8  81727814.456 7
  19664020.150 7
  21898404.740 7 116895254.007 7  90918601.451 7
  21898413.362 7
  22283655.147 7 118909927.442 7  92485576.278 7
  22283664.909 7
  22600027.044 7 120725333.038 7  93897520.837 6
  22600034.224 6
  37170848.222 7 195334194.537 7

  38337498.353 7 201464996.722 7

  39182977.400 7 205907918.352 7

 11 11  1  2 25  0.0000000  0 21G02G31G29G05G30G27G12G21G25G09R14R24
                                R17R01R15R18R02R16S20S33S38
  23276575.536 7 122319426.304 7  95313964.696 5  23276577.091 5  23276574.978 5

  24299788.419 6 127696213.315 6  99503557.784 4  24299796.981 4  24299788.352 4
  24299797.444 6
  21670165.110 8 113877522.667 8  88735777.761 6  21670169.840 6  21670165.052 6
  21670170.571 7
  22710203.453 7 119343084.605 7  92994713.627 5  22710206.466 5  22710203.560 5
  22710207.567 6
  25399105.572 7 133473200.624 7 104005117.808 3  25399112.857 3  25399104.723 3

  25059383.619 6 131687921.025 6 102613999.036 2  25059397.636 2  25059383.159 2

  20567541.646 8 108083405.690 8  84220952.958 6  20567542.960 6  20567541.530 6
  20567543.884 7
  22916680.658 7 120428006.225 7  93840023.643 4  22916681.871 4  22916679.894 4

  20667734.325 8 108609796.116 8  84631106.621 7  20667740.078 7  20667733.704 7
  20667740.637 7
  22844448.689 8 120048378.775 8  93544218.831 5  22844454.824 5  22844448.569 5

  21156818.240 8 112777804.139 8  87716154.824 7
  21156831.675 7
  23634452.698 5 126384039.873 5

  21124011.530 7 113038970.480 7  87919133.284 6
  21124018.588 6
  23501492.405 6 125628967.806 6  97711448.999 5
  23501500.285 5
  19662343.325 8 105069648.211 8  81720888.402 7
  19662353.671 7
  21895975.754 7 116882286.886 7  90908516.026 7
  21895984.257 7
  22277292.336 7 118875974.641 7  92459168.601 7
  22277301.677 7
  22590105.265 8 120672333.743 8  93856299.282 6
  22590111.394 6
  37170415.713 7 195331943.086 7

  38337263.817 7 201463777.772 7

  39182590.851 7 205905872.465 7

 11 11  1  2 25 15.0000000  0 21G02G31G29G05G30G27G12G21G25G09R14R24
                                R17R01R15R18R02R16S20S33S38
  23285952.059 7 122368702.300 7  95352361.595 4  23285953.994 4  23285951.487 4

  24291799.175 7 127654228.722 7  99470842.512 4  24291807.685 4  24291799.131 4
  24291807.736 6
  21668126.787 8 113866809.946 8  88727430.226 6  21668131.236 6  21668126.716 6
  21668131.621 7
  22708135.684 7 119332218.181 7  92986246.293 5  22708138.707 5  22708135.804 5
  22708139.658 6
  25389875.207 7 133424693.992 7 103967320.350 3  25389882.006 3  25389874.309 3

  25069681.278 6 131742034.816 6 102656165.891 3  25069694.862 3  25069680.836 3

  20568064.253 8 108086151.793 8  84223092.752 7  20568065.631 7  20568064.142 7
  20568066.005 8
  22906690.533 6 120375508.234 6  93799116.254 3  22906691.435 3  22906689.796 3

  20663064.639 8 108585257.555 8  84611985.695 7  20663070.528 7  20663064.027 7
  20663071.295 7
  22853140.258 7 120094051.325 7  93579807.216 4  22853146.276 4  22853140.098 4

  21167025.493 8 112832215.412 8  87758474.558 7
  21167039.491 7
  23639966.384 5 126413527.243 5

  21126953.522 7 113054711.866 7  87931376.602 6
  21126959.819 6
  23502909.523 6 125636537.851 6  97717336.876 5
  23502917.424 5
  19660715.883 8 105060951.768 8  81714124.498 7
  19660725.937 7
  21893553.830 8 116869359.219 8  90898461.209 7
  21893561.896 7
  22270948.342 7 118842120.206 7  92432837.422 7
  22270957.366 7
  22580204.176 7 120619442.841 7  93815162.086 7
  22580210.276 7
  37169986.634 6 195329691.537 6

  38337035.397 7 201462558.130 7

  39182200.451 7 205903827.006 7

 11 11  1  2 25 30.0000000  0 21G02G31G29G05G30G27G12G21G25G09R14R24
                                R17R01R15R18R02R16S20S33S38
  23295333.605 7 122418003.169 7  95390777.868 4  23295335.610 4  23295333.029 4

  24283828.350 6 127612342.198 6  99438203.605 3  24283836.902 3  24283828.315 3
  24283836.674 6
  21666091.785 8 113856117.120 8  88719098.186 6  21666096.599 6  21666091.714 6
  21666097.014 7
  22706088.556 7 119321461.920 7  92977864.813 5  22706091.804 5  22706088.645 5
  22706092.685 6
  25380640.641 7 133376164.080 7 103929504.751 3  25380646.934 3  25380639.725 3

  25079971.365 6 131796108.333 6 102698301.315 3  25079984.450 3  25079970.936 3

  20568607.126 8 108089003.930 8  84225314.957 7  20568608.329 7  20568607.019 7
  20568609.067 7
  22896713.195 7 120323078.552 7  93758262.248 3  22896713.702 3  22896712.467 3

  20658409.766 8 108560797.417 8  84592925.885 7  20658415.936 7  20658409.145 7
  20658416.340 7
  22861837.578 7 120139754.579 7  93615419.672 2  22861843.694 2  22861837.395 2

  21177250.199 8 112886717.130 8  87800864.416 7
  21177264.159 7
  23645470.756 5 126442972.578 5

  21129895.168 7 113070455.410 7  87943621.595 6
  21129902.093 6
  23504354.655 6 125644266.670 6  97723348.187 5
  23504362.099 5
  19659127.670 8 105052463.864 8  81707522.809 7
  19659138.000 7
  21891139.055 8 116856470.332 8  90888436.607 7
  21891147.561 7
  22264622.387 7 118808364.659 7  92406583.146 6
  22264631.800 6
  22570322.784 7 120566660.433 7  93774109.313 7
  22570329.243 7
  37169559.321 7 195327438.439 7

  38336806.464 7 201461340.426 7

  39181814.537 7 205901781.353 7

 11 11  1  2 25 45.0000000  0 20G02G31G29G05G30G27G12G21G25G09R14R17
                                R01R15R18R02R16S20S33S38
  23304720.174 7 122467328.380 7  95429213.094 4  23304721.738 4  23304719.620 4

  24275875.961 7 127570554.191 7  99405641.572 4  24275884.752 4  24275875.921 4
  24275885.043 6
  21664060.612 8 113845444.126 8  88710781.609 6  21664065.708 6  21664060.541 6
  21664066.025 7
  22704062.626 7 119310816.169 7  92969569.447 5  22704065.815 5  22704062.706 5
  22704067.205 6
  25371401.125 7 133327611.162 7 103891671.250 3  25371407.564 3  25371400.213 3

  25090253.231 6 131850141.103 6 102740404.975 3  25090266.852 3  25090252.811 3

  20569170.307 8 108091962.914 8  84227620.437 6  20569171.668 6  20569170.178 6
  20569172.425 7
  22886749.053 7 120270716.870 7  93717461.120 5  22886749.720 5  22886748.343 5

  20653770.258 8 108536415.980 8  84573927.400 7  20653776.283 7  20653769.632 7
  20653776.789 7
  22870540.583 6 120185488.146 6  93651055.844 3  22870546.947 3  22870540.418 3

  21187491.486 8 112941309.311 8  87843324.655 7
  21187505.540 7
  21132837.272 7 113086200.261 7  87955867.603 6
  21132844.659 6
  23505829.796 6 125652154.279 6  97729483.000 5
  23505839.412 5
  19657578.510 8 105044184.871 8  81701083.599 7
  19657588.755 7
  21888731.592 7 116843619.811 7  90878441.873 7
  21888740.169 7
  22258314.852 7 118774708.424 7  92380406.118 6
  22258324.013 6
  22560461.870 7 120513986.769 7  93733141.053 7
  22560468.487 7
  37169132.894 7 195325186.132 7

  38336571.757 7 201460122.075 7

  39181423.963 7 205899735.110 7

 11 11  1  2 26  0.0000000  0 21G02G31G29G05G30G27G12G21G25G09R14R24
                                R17R01R15R18R02R16S20S33S38
  23314110.714 7 122516677.704 7  95467667.131 4  23314112.405 4  23314110.173 4

  24267943.478 6 127528864.951 6  99373156.367 4  24267951.575 4  24267943.461 4
  24267951.802 6
  21662033.535 8 113834790.677 8  88702480.264 6  21662038.494 6  21662033.468 6
  21662038.573 7
  22702057.870 7 119300280.992 7  92961360.238 5  22702060.904 5  22702057.950 5
  22702062.022 6
  25362157.022 7 133279035.386 7 103853819.932 3  25362164.354 3  25362156.101 3

  25100526.798 6 131904133.201 6 102782476.970 3  25100541.255 3  25100526.360 3

  20569754.155 8 108095029.143 8  84230009.713 6  20569755.390 6  20569754.039 6
  20569756.077 7
  22876798.265 7 120218423.400 7  93676712.990 4  22876799.054 4  22876797.546 4

  20649145.737 8 108512113.533 8  84554990.456 7  20649151.476 7  20649145.107 7
  20649152.031 7
  22879248.894 6 120231251.843 6  93686715.543 2  22879256.550 2  22879248.760 2

  21197749.873 7 112995991.491 7  87885855.045 7
  21197764.315 7
  23656462.034 5 126501718.379 5

  21135780.222 7 113101946.912 7  87968114.989 6
  21135787.368 6
  23507335.579 6 125660200.796 6  97735741.418 5
  23507343.879 5
  19656068.325 8 105036114.840 8  81694806.916 7
  19656078.107 7
  21886331.479 8 116830807.969 8  90868477.277 7
  21886340.520 7
  22252026.445 7 118741152.117 7  92354306.850 6
  22252035.880 6
  22550621.433 7 120461422.946 7  93692258.324 7
  22550628.317 7
  37168700.904 7 195322932.869 7

  38336339.993 6 201458903.350 6

  39181032.880 7 205897689.972 7

 11 11  1  2 26 15.0000000  0 21G02G31G29G05G30G27G12G21G25G09R14R24
                                R17R01R15R18R02R16S20S33S38
  23323506.467 7 122566050.827 7  95506139.702 4  23323507.731 4  23323505.935 4

  24260029.020 6 127487274.822 6  99340748.415 4  24260037.411 4  24260029.016 4
  24260037.541 6
  21660009.823 8 113824156.688 8  88694194.081 6  21660014.897 6  21660009.761 6
  21660014.967 7
  22700074.117 7 119289856.602 7  92953237.343 5  22700077.221 5  22700074.193 5
  22700078.515 6
  25352909.554 7 133230436.954 7 103815950.956 3  25352916.497 3  25352908.629 3

  25110792.795 6 131958084.053 6 102824516.797 3  25110807.778 3  25110792.415 3

  20570357.498 8 108098202.394 8  84232482.361 6  20570359.367 6  20570357.391 6
  20570359.578 7
  22866859.932 7 120166198.660 7  93636018.410 4  22866860.993 4  22866859.226 4

  20644536.139 9 108487890.356 9  84536115.284 7  20644541.663 7  20644535.505 7
  20644542.677 7
  22887963.599 7 120277045.148 7  93722398.351 3  22887971.389 3  22887963.434 3

  21208025.199 7 113050762.695 7  87928454.410 7
  21208039.289 7
  23661944.759 6 126531037.791 6  98413066.526 5
  23661950.999 5
  21138723.943 7 113117695.455 7  87980363.910 6
  21138731.011 6
  23508870.967 6 125668406.001 6  97742123.267 5
  23508879.153 5
  19654597.162 8 105028253.274 8  81688692.367 7
  19654606.981 7
  21883938.325 7 116818033.927 7  90858542.056 7
  21883946.863 7
  22245756.948 7 118707695.987 7  92328285.436 6
  22245766.367 6
  22540801.657 7 120408969.108 7  93651461.105 6
  22540808.895 6
  37168270.323 7 195320678.028 7

  38336113.818 6 201457685.150 6

  39180642.851 7 205895643.123 7

 11 11  1  2 26 30.0000000  0 21G02G31G29G05G30G27G12G21G25G09R14R24
                                R17R01R15R18R02R16S20S33S38
  23332906.070 7 122615447.409 7  95544630.544 4  23332907.743 4  23332905.529 4

  24252133.011 7 127445784.234 7  99308418.087 4  24252142.104 4  24252133.003 4
  24252142.425 6
  21657990.061 8 113813542.089 8  88685923.015 6  21657994.980 6  21657990.003 6
  21657994.995 7
  22698111.559 7 119279543.234 7  92945200.969 5  22698114.689 5  22698111.635 5
  22698115.983 6
  25343657.022 6 133181815.962 6 103778064.409 3  25343664.648 3  25343656.110 3

  25121050.547 6 132011993.240 6 102866524.015 2  25121065.926 2  25121050.194 2

  20570982.030 8 108101482.815 8  84235038.515 6  20570983.700 6  20570981.923 6
  20570983.702 7
  22856935.212 7 120114042.762 7  93595377.480 4  22856936.008 4  22856934.506 4

  20639941.841 8 108463746.781 8  84517302.133 7  20639947.102 7  20639941.202 7
  20639948.200 7
  22896683.623 7 120322867.699 7  93758103.902 5  22896692.091 5  22896683.413 5

  21218317.094 7 113105622.861 7  87971123.198 7
  21218331.474 7
  23667418.250 6 126560315.318 6  98435838.010 5
  23667426.119 5
  21141666.682 7 113133445.091 7  87992613.673 6
  21141673.553 6
  23510435.497 6 125676770.171 6  97748628.718 5
  23510442.848 5
  19653164.902 8 105020600.773 8  81682740.429 7
  19653175.012 7
  21881552.851 8 116805297.955 8  90848636.432 7
  21881560.790 7
  22239506.953 7 118674340.831 7  92302342.579 7
  22239514.773 7
  22531002.194 7 120356625.789 7  93610749.874 7
  22531009.166 7
  37167839.808 7 195318423.272 7

  38335878.083 6 201456467.640 6

  39180253.672 7 205893597.115 7

 11 11  1  2 26 45.0000000  0 21G02G31G29G05G30G27G12G21G25G09R14R24
                                R17R01R15R18R02R16S20S33S38
  23342310.387 7 122664867.001 7  95583139.335 4  23342312.200 4  23342309.842 4

  24244257.487 6 127404393.319 6  99276165.400 4  24244265.658 4  24244257.483 4
  24244265.404 6
  21655973.528 8 113802946.692 8  88677666.897 6  21655978.801 6  21655973.470 6
  21655978.914 7
  22696170.347 7 119269341.007 7  92937251.191 5  22696173.419 5  22696170.414 5
  22696173.775 6
  25334400.565 6 133133172.689 6 103740160.496 3  25334408.559 3  25334399.671 3

  25131302.532 6 132065860.712 6 102908498.760 2  25131316.101 2  25131302.300 2

  20571626.619 8 108104870.704 8  84237678.495 6  20571628.351 6  20571626.517 6
  20571628.526 7
  22847023.384 7 120061956.195 7  93554790.615 4  22847024.612 4  22847022.669 4

  20635362.778 8 108439682.984 8  84498551.161 7  20635367.914 7  20635362.144 7
  20635368.843 7
  22905409.026 7 120368719.003 7  93793831.946 4  22905417.979 4  22905408.767 4

  21228625.582 7 113160571.622 7  88013861.051 7
  21228639.361 7
  23672887.272 6 126589550.858 6  98458576.772 5
  23672892.421 5
  21144610.201 7 113149195.945 7  88004864.330 6
  21144616.507 6
  23512029.906 6 125685293.145 6  97755257.742 5
  23512037.242 5
  19651772.030 8 105013157.629 8  81676951.341 7
  19651782.101 7
  21879173.640 7 116792599.498 7  90838759.943 7
  21879182.562 7
  22233274.428 7 118641087.095 7  92276478.621 6
  22233282.951 6
  22521224.022 7 120304392.707 7  93570124.025 6
  22521232.598 6
  37167412.375 7 195316168.328 7

  38335645.715 7 201455249.659 7

  39179863.018 7 205891552.291 7

 11 11  1  2 27  0.0000000  0 21G02G31G29G05G30G27G12G21G25G09R14R24
                                R17R01R15R18R02R16S20S33S38
  23351719.257 7 122714309.292 7  95621665.809 4  23351720.789 4  23351718.734 4

  24236399.207 6 127363102.238 6  99243990.505 4  24236407.917 4  24236399.242 4
  24236408.828 6
  21653960.952 8 113792370.440 8  88669425.704 6  21653966.245 6  21653960.885 6
  21653966.458 7
  22694249.967 7 119259250.025 7  92929388.129 5  22694253.483 5  22694250.025 5
  22694253.738 6
  25325139.576 6 133084507.205 6 103702239.255 3  25325148.379 3  25325138.696 3

  25141545.144 6 132119686.147 6 102950440.801 2  25141558.424 2  25141544.943 2

  20572291.859 8 108108365.830 8  84240401.849 6  20572293.492 6  20572291.748 6
  20572293.831 7
  22837124.973 6 120009939.239 6  93514258.056 4  22837125.776 4  22837124.271 4

  20630798.673 8 108415699.333 8  84479862.628 7  20630804.105 7  20630798.034 7
  20630804.921 7
  22914140.200 7 120414598.730 7  93829582.070 4  22914149.363 4  22914139.910 4

  21238950.609 7 113215607.653 7  88056666.640 7
  21238964.453 7
  23678346.130 6 126618744.454 6  98481283.011 5
  23678352.163 5
  21147553.606 7 113164947.457 7  88017115.520 6
  21147559.929 6
  23513653.864 6 125693975.192 6  97762010.488 5
  23513661.756 5
  19650418.215 8 105005923.628 8  81671324.893 7
  19650428.050 7
  21876801.271 7 116779938.481 7  90828912.540 7
  21876810.031 7
  22227061.736 7 118607935.310 7  92250693.971 6
  22227071.007 6
  22511467.315 7 120252270.829 7  93529584.727 7
  22511474.301 7
  37166984.239 7 195313913.025 7

  38335413.629 6 201454031.152 6

  39179477.354 7 205889506.191 7

 11 11  1  2 27 15.0000000  0 21G02G31G29G05G30G27G12G21G25G09R14R24
                                R17R01R15R18R02R16S20S33S38
  23361132.149 7 122763774.032 7  95660209.773 4  23361133.363 4  23361131.604 4

  24228561.058 7 127321911.566 7  99211893.905 4  24228569.422 4  24228561.107 4
  24228570.164 6
  21651952.075 8 113781813.367 8  88661199.458 6  21651957.377 6  21651952.004 6
  21651957.182 7
  22692350.831 7 119249270.740 7  92921612.088 5  22692354.487 5  22692350.893 5
  22692354.671 6
  25315875.212 6 133035819.807 6 103664300.965 3  25315883.803 3  25315874.385 3

  25151779.884 7 132173469.169 7 102992349.794 3  25151792.900 3  25151779.665 3

  20572977.290 8 108111968.893 8  84243209.476 6  20572978.960 6  20572977.183 6
  20572979.188 7
  22827239.530 7 119957991.879 7  93473779.640 4  22827240.150 4  22827238.855 4

  20626250.154 8 108391796.141 8  84461236.800 7  20626255.620 7  20626249.524 7
  20626256.398 7
  22922876.615 7 120460506.581 7  93865354.110 5  22922885.760 5  22922876.298 5

  21249291.311 7 113270731.269 7  88099540.368 7
  21249305.327 7
  23683798.478 6 126647896.283 6  98503956.713 5
  23683802.844 5
  21150497.567 7 113180699.422 7  88029367.068 6
  21150503.994 6
  23515307.173 6 125702816.107 6  97768886.823 5
  23515315.318 5
  19649103.692 8 104998898.322 8  81665860.764 7
  19649113.515 7
  21874436.803 7 116767315.044 7  90819094.443 7
  21874445.021 7
  22220868.782 7 118574885.832 7  92224988.842 6
  22220876.528 6
  22501731.110 7 120200260.617 7  93489131.912 6
  22501737.268 6
  37166553.251 6 195311656.678 6

  38335180.693 7 201452812.930 7

  39179090.357 7 205887458.486 7

 11 11  1  2 27 30.0000000  0 21G02G31G29G05G30G27G12G21G25G09R14R24
                                R17R01R15R18R02R16S20S33S38
  23370549.071 7 122813260.846 7  95698770.946 4  23370550.439 4  23370548.539 4

  24220742.197 6 127280821.330 6  99179875.521 4  24220750.437 4  24220742.255 4
  24220750.952 6
  21649946.726 8 113771275.304 8  88652988.019 6  21649952.109 6  21649946.650 6
  21649951.659 7
  22690473.107 7 119239403.100 7  92913923.032 5  22690476.540 5  22690473.169 5
  22690477.405 6
  25306604.973 6 132987110.570 6 103626345.663 3  25306614.800 3  25306604.155 3

  25162006.015 6 132227209.461 6 103034225.492 3  25162019.420 3  25162005.823 3

  20573683.315 8 108115679.335 8  84246100.808 6  20573684.846 6  20573683.204 6
  20573685.481 7
  22817367.422 7 119906114.409 7  93433355.643 4  22817367.706 4  22817366.743 4

  20621716.815 8 108367973.607 8  84442673.814 7  20621722.298 7  20621716.189 7
  20621722.833 7
  22931618.026 7 120506442.141 7  93901147.825 4  22931626.852 4  22931617.660 4

  21259648.767 8 113325940.878 8  88142480.962 7
  21259663.044 7
  23689240.806 6 126677006.022 6  98526597.660 5
  23689245.413 5
  21153441.008 7 113196451.933 7  88041619.049 6
  21153447.092 6
  23516991.346 6 125711815.978 6  97775886.711 5
  23516998.974 5
  19647828.420 8 104992082.542 8  81660559.615 7
  19647837.990 7
  21872078.429 7 116754728.676 7  90809305.200 7
  21872087.472 7
  22214694.386 7 118541939.261 7  92199363.778 6
  22214702.683 6
  22492015.810 6 120148363.164 6  93448767.057 7
  22492023.474 7
  37166126.314 7 195309402.146 7

  38334950.074 7 201451594.946 7

  39178700.365 7 205885413.687 7

 11 11  1  2 27 45.0000000  0 21G02G31G29G05G30G27G12G21G25G09R14R24
                                R17R01R15R18R02R16S20S33S38
  23379970.378 7 122862769.572 7  95737349.182 4  23379971.633 4  23379969.882 4

  24212941.963 6 127239832.065 6  99147935.803 4  24212950.617 4  24212942.016 4
  24212950.526 6
  21647945.100 8 113760756.197 8  88644791.354 6  21647950.383 6  21647945.024 6
  21647949.876 7
  22688616.504 7 119229647.682 7  92906321.429 5  22688620.097 5  22688616.588 5
  22688621.045 6
  25297331.769 5 132938379.866 5 103588373.591 3  25297341.750 3  25297330.974 3

  25172224.028 6 132280906.951 6 103076067.829 3  25172237.981 3  25172223.774 3

  20574410.260 8 108119497.738 8  84249076.187 6  20574411.310 6  20574410.153 6
  20574411.994 7
  22807508.819 7 119854307.085 7  93392986.241 4  22807509.084 4  22807508.144 4

  20617198.888 8 108344232.100 8  84424173.969 7  20617204.362 7  20617198.262 7
  20617205.030 7
  22940364.753 8 120552404.986 8  93936962.787 6  22940373.109 6  22940364.364 6

  21270022.122 7 113381236.958 7  88185488.871 7
  21270036.484 7
  23694676.619 6 126706073.967 6  98549206.141 5
  23694683.583 5
  21156384.617 7 113212204.503 7  88053871.034 6
  21156391.349 6
  23518703.592 6 125720974.773 6  97783010.308 5
  23518712.223 5
  19646591.588 8 104985475.778 8  81655421.018 7
  19646601.648 7
  21869727.655 7 116742179.070 7  90799544.500 7
  21869736.467 7
  22208538.826 7 118509095.897 7  92173818.986 6
  22208548.206 6
  22482321.633 7 120096578.448 7  93408489.892 7
  22482329.493 7
  37165697.744 7 195307146.495 7

  38334719.794 6 201450377.200 6

  39178308.490 7 205883367.200 7

 11 11  1  2 28  0.0000000  0 21G02G31G29G05G30G27G12G21G25G09R14R24
                                R17R01R15R18R02R16S20S33S38
  23389395.492 7 122912299.770 7  95775944.163 4  23389396.901 4  23389394.996 4

  24205161.256 7 127198943.914 7  99116074.915 4  24205170.074 4  24205161.273 4
  24205170.566 6
  21645946.845 8 113750255.868 8  88636609.325 6  21645952.203 6  21645946.761 6
  21645951.819 7
  22686781.676 7 119220004.369 7  92898807.188 5  22686785.435 5  22686781.747 5
  22686785.545 6
  25288055.739 6 132889627.824 6 103550384.878 3  25288064.833 3  25288054.988 3

  25182432.458 6 132334561.166 6 103117876.385 2  25182448.184 2  25182432.168 2

  20575157.358 8 108123424.307 8  84252135.900 6  20575158.442 6  20575157.256 6
  20575159.221 7
  22797663.613 7 119802570.454 7  93352671.939 4  22797664.128 4  22797662.929 4

  20612696.616 8 108320571.854 8  84405737.452 7  20612701.917 7  20612695.990 7
  20612702.720 7
  22949116.022 6 120598394.451 6  93972798.552 4  22949124.745 4  22949115.593 4

  21280411.391 7 113436618.451 7  88228563.391 7
  21280425.921 7
  23700105.465 6 126735100.138 6  98571782.077 5
  23700109.019 5
  21159328.815 7 113227957.695 7  88066123.560 6
  21159335.581 6
  23520447.503 6 125730292.485 6  97790257.442 5
  23520453.893 5
  19645394.866 8 104979078.380 8  81650445.280 7
  19645404.518 7
  21867383.589 7 116729665.998 7  90789812.181 7
  21867391.960 7
  22202404.341 7 118476356.632 7  92148355.185 6
  22202412.828 6
  22472649.351 7 120044906.952 7  93368300.618 6
  22472656.263 6
  37165265.477 6 195304891.553 6

  38334485.754 7 201449159.736 7

  39177920.335 7 205881320.335 7

 11 11  1  2 28 15.0000000  0 21G02G31G29G05G30G27G12G21G25G09R14R24
                                R17R01R15R18R02R16S20S33S38
  23398824.571 7 122961850.952 7  95814555.509 4  23398826.127 4  23398824.080 4

  24197400.170 7 127158156.953 7  99084292.803 4  24197408.800 4  24197400.166 4
  24197408.819 6
  21643952.227 8 113739774.112 8  88628441.766 6  21643957.443 6  21643952.138 6
  21643957.439 7
  22684967.860 7 119210473.411 7  92891380.480 5  22684971.924 5  22684967.940 5
  22684971.897 6
  25278774.337 6 132840854.325 6 103512379.467 3  25278783.408 3  25278773.582 3

  25192635.313 5 132388171.966 5 103159651.147 2  25192649.923 2  25192635.059 2

  20575925.042 8 108127459.002 8  84255279.868 6  20575926.220 6  20575924.940 6
  20575926.603 7
  22787831.785 7 119750904.456 7  93312412.741 4  22787832.577 4  22787831.101 4

  20608209.609 8 108296993.039 8  84387364.385 7  20608214.916 7  20608208.983 7
  20608215.767 7
  22957873.030 7 120644410.482 7  94008654.776 4  22957881.671 4  22957872.641 4

  21290816.649 7 113492084.274 7  88271703.160 7
  21290831.618 7
  23705524.253 5 126764084.447 5  98594325.451 5
  23705532.592 5
  21162271.920 7 113243710.285 7  88078375.587 6
  21162277.543 6
  23522221.820 6 125739769.186 6  97797628.123 4
  23522229.568 4
  19644236.518 8 104972889.653 8  81645631.841 7
  19644246.715 7
  21865046.353 7 116717189.168 7  90780108.096 7
  21865054.629 7
  22196287.760 7 118443721.636 7  92122972.470 6
  22196296.766 6
  22462997.389 7 119993349.588 7  93328200.392 7
  22463005.334 7
  37164840.977 7 195302636.495 7

  38334253.140 7 201447941.491 7

  39177528.362 7 205879274.340 7

 11 11  1  2 28 30.0000000  0 21G02G31G29G05G30G27G12G21G25G09R14R24
                                R17R01R15R18R02R16S20S33S38
  23408258.040 7 123011423.011 7  95853183.106 4  23408259.363 4  23408257.535 4

  24189658.048 7 127117471.821 7  99052590.082 4  24189666.498 4  24189658.022 4
  24189666.440 6
  21641961.076 8 113729310.931 8  88620288.674 6  21641966.154 6  21641960.983 6
  21641965.942 7
  22683175.810 7 119201055.048 7  92884041.519 5  22683179.478 5  22683175.868 5
  22683180.267 6
  25269489.870 6 132792059.888 6 103474357.729 3  25269497.891 3  25269489.057 3

  25202829.434 6 132441739.029 6 103201391.962 3  25202843.518 3  25202829.215 3

  20576713.589 8 108131601.693 8  84258507.926 6  20576714.616 6  20576713.491 6
  20576714.965 7
  22778013.761 7 119699309.433 7  93272208.836 4  22778014.021 4  22778013.073 4

  20603738.268 8 108273496.062 8  84369055.089 7  20603743.334 7  20603737.647 7
  20603744.467 7
  22966634.870 7 120690452.791 7  94044531.755 3  22966643.578 3  22966634.513 3

  21301237.926 8 113547635.268 8  88314909.410 8
  21301252.531 8
  23710935.020 6 126793026.854 6  98616836.296 5
  23710944.646 5
  21165215.894 7 113259462.536 7  88090627.362 6
  21165222.201 6
  23524023.440 6 125749404.874 6  97805122.647 4
  23524031.215 4
  19643117.399 8 104966910.844 8  81640981.659 7
  19643127.235 7
  21862716.281 8 116704748.730 8  90770432.371 7
  21862723.812 7
  22190191.629 7 118411191.464 7  92097671.264 6
  22190200.760 6
  22453367.776 7 119941906.608 7  93288189.067 6
  22453375.509 6
  37164409.264 6 195300381.644 6

  38334022.798 6 201446722.962 6

  39177143.163 7 205877228.220 7

 11 11  1  2 28 45.0000000  0 21G02G31G29G05G30G27G12G21G25G09R14R24
                                R17R01R15R18R02R16S20S33S38
  23417695.277 7 123061015.591 7  95891826.683 4  23417696.477 4  23417694.772 4

  24181935.472 7 127076888.556 7  99020966.730 4  24181943.174 4  24181935.468 4
  24181943.719 5
  21639973.547 8 113718866.176 8  88612149.957 6  21639978.383 6  21639973.449 6
  21639978.663 7
  22681404.761 7 119191749.242 7  92876790.263 5  22681408.608 5  22681404.823 5
  22681409.041 7
  25260200.345 6 132743244.583 6 103436319.747 3  25260208.431 3  25260199.527 3

  25213013.140 6 132495262.029 6 103243098.397 3  25213028.502 3  25213012.904 3

  20577522.378 8 108135852.984 8  84261820.632 6  20577523.734 6  20577522.289 6
  20577524.306 7
  22768209.061 7 119647785.841 7  93232060.628 4  22768209.519 4  22768208.368 4

  20599282.411 9 108250081.232 9  84350809.801 7  20599287.622 7  20599281.794 7
  20599288.421 7
  22975400.869 8 120736520.885 8  94080428.709 5  22975409.948 5  22975400.521 5

  21311675.224 8 113603269.307 8  88358180.037 7
  21311690.139 7
  23716341.049 5 126821927.630 5  98639314.656 5
  23716347.609 5
  21168159.430 7 113275214.405 7  88102878.809 6
  21168166.343 6
  23525855.081 6 125759199.488 6  97812740.726 5
  23525864.519 5
  19642038.145 8 104961141.019 8  81636494.039 7
  19642047.762 7
  21860391.801 7 116692343.835 7  90760784.217 7
  21860400.019 7
  22184115.712 7 118378766.799 7  92072452.138 6
  22184124.436 6
  22443758.695 8 119890578.644 8  93248267.392 7
  22443766.444 7
  37163982.314 6 195298125.832 6

  38333789.554 7 201445507.318 7

  39176750.281 7 205875181.323 7

 11 11  1  2 29  0.0000000  0 21G02G31G29G05G30G27G12G21G25G09R14R24
                                R17R01R15R18R02R16S20S33S38
  23427136.615 7 123110628.464 7  95930486.071 4  23427137.570 4  23427136.119 4

  24174231.826 7 127036407.388 7  98989422.843 3  24174239.302 3  24174231.843 3
  24174240.488 5
  21637989.418 8 113708439.891 8  88604025.619 6  21637994.190 6  21637989.325 6
  21637994.893 7
  22679655.468 7 119182556.472 7  92869627.072 5  22679659.372 5  22679655.521 5
  22679659.646 6
  25250906.787 6 132694408.673 6 103398265.710 3  25250914.901 3  25250905.947 3

  25223190.613 6 132548740.383 6 103284769.997 3  25223204.792 3  25223190.341 3

  20578351.925 8 108140212.866 8  84265218.057 6  20578353.372 6  20578351.836 6
  20578353.460 7
  22758417.991 8 119596333.674 8  93191968.020 5  22758418.606 5  22758417.281 5

  20594842.189 9 108226748.818 9  84332628.727 7  20594847.864 7  20594841.563 7
  20594848.479 7
  22984172.521 7 120782614.384 7  94116345.506 5  22984181.443 5  22984172.182 5

  21322127.733 7 113658987.239 7  88401516.226 7
  21322142.626 7
  23721737.650 6 126850786.476 6  98661760.581 5
  23721744.561 5
  21171102.986 7 113290965.309 7  88115129.553 6
  21171108.818 6
  23527716.788 6 125769153.163 6  97820482.433 4
  23527727.215 4
  19640997.071 8 104955580.176 8  81632168.941 7
  19641007.109 7
  21858074.371 8 116679974.670 8  90751163.879 7
  21858082.544 7
  22178058.571 7 118346447.990 7  92047315.346 6
  22178067.799 6
  22434171.446 7 119839365.786 7  93208435.178 6
  22434179.538 6
  37163549.161 7 195295871.259 7

  38333562.512 7 201444289.416 7

  39176362.453 7 205873135.826 7

 11 11  1  2 29 15.0000000  0 21G02G31G29G05G30G27G12G21G25G09R14R24
                                R17R01R15R18R02R16S20S33S38
  23436580.885 7 123160261.357 7  95969161.065 4  23436582.276 4  23436580.380 4

  24166548.249 7 126996029.072 7  98957959.181 4  24166555.490 4  24166548.250 4
  24166556.699 6
  21636008.764 8 113698032.032 8  88595915.636 6  21636013.445 6  21636008.671 6
  21636014.033 7
  22677927.792 7 119173476.929 7  92862552.115 5  22677931.484 5  22677927.841 5
  22677931.535 7
  25241610.445 6 132645552.398 6 103360195.799 3  25241617.915 3  25241609.609 3

  25233358.686 6 132602174.399 6 103326407.084 3  25233372.337 3  25233358.423 3

  20579202.159 8 108144681.246 8  84268699.877 6  20579203.736 6  20579202.070 6
  20579203.947 7
  22748640.907 7 119544953.171 7  93151931.203 5  22748641.215 5  22748640.188 5

  20590418.231 8 108203499.166 8  84314512.159 7  20590423.672 7  20590417.605 7
  20590424.224 7
  22992948.618 7 120828732.955 7  94152281.826 5  22992957.686 5  22992948.279 5

  21332596.038 8 113714787.268 8  88444916.013 7
  21332610.567 7
  23727127.860 5 126879603.802 5  98684174.165 5
  23727134.780 5
  21174046.261 7 113306715.598 7  88127379.786 6
  21174052.979 6
  23529609.688 6 125779265.866 6  97828347.849 4
  23529617.763 4
  19639995.828 8 104950229.311 8  81628007.155 7
  19640005.721 7
  21855763.558 7 116667640.898 7  90741570.949 7
  21855772.417 7
  22172022.489 7 118314235.637 7  92022261.318 6
  22172030.938 6
  22424606.487 7 119788268.837 7  93168693.211 7
  22424613.968 7
  37163123.686 7 195293615.484 7

  38333324.344 7 201443071.841 7

  39175973.802 7 205871089.221 7

 11 11  1  2 29 30.0000000  0 21G02G31G29G05G30G27G12G21G25G09R14R24
                                R17R01R15R18R02R16S20S33S38
  23446029.603 7 123209913.686 7  96007851.210 4  23446030.497 4  23446029.071 4

  24158883.961 7 126955753.451 7  98926575.569 4  24158891.634 4  24158883.953 4
  24158892.501 6
  21634031.626 8 113687642.287 8  88587819.769 6  21634036.362 6  21634031.524 6
  21634036.821 7
  22676221.427 7 119164510.731 7  92855565.496 5  22676225.148 5  22676221.471 5
  22676225.353 6
  25232309.419 6 132596675.696 6 103322109.977 3  25232317.208 3  25232308.583 3

  25243517.821 6 132655562.966 6 103368008.630 2  25243530.714 2  25243517.486 2

  20580072.809 8 108149258.687 8  84272266.861 6  20580074.750 6  20580072.716 6
  20580075.005 7
  22738877.306 7 119493644.819 7  93111950.700 4  22738877.606 4  22738876.587 4

  20586009.522 8 108180332.352 8  84296460.126 7  20586015.005 7  20586008.896 7
  20586015.866 7
  23001729.525 7 120874876.159 7  94188237.288 4  23001738.343 4  23001729.163 4

  21343080.113 7 113770669.381 7  88488379.598 6
  21343094.192 6
  23732508.293 5 126908379.262 5  98706555.074 5
  23732514.699 5
  21176988.898 7 113322464.814 7  88139629.193 6
  21176996.728 6
  23531531.120 6 125789537.307 6  97836336.899 4
  23531538.265 4
  19639033.731 8 104945087.315 8  81624007.839 7
  19639043.220 7
  21853459.559 7 116655342.235 7  90732005.394 7
  21853468.058 7
  22166006.197 7 118282129.973 7  91997290.298 7
  22166014.103 7
  22415062.937 7 119737287.936 7  93129041.408 6
  22415070.221 6
  37162691.804 7 195291359.608 7

  38333093.626 7 201441855.349 7

  39175582.790 7 205869042.860 7

 11 11  1  2 29 45.0000000  0 21G02G31G29G05G30G27G12G21G25G09R14R24
                                R17R01R15R18R02R16S20S33S38
  23455481.777 7 123259585.332 7  96046556.387 4  23455482.649 4  23455481.223 4

  24151239.568 7 126915580.718 7  98895272.074 4  24151247.404 4  24151239.546 4
  24151247.986 5
  21632058.144 8 113677270.640 8  88579738.008 6  21632062.771 6  21632058.037 6
  21632063.077 7
  22674537.396 7 119155658.091 7  92848667.353 5  22674540.460 5  22674537.440 5
  22674541.291 6
  25223005.161 6 132547778.871 6 103284008.467 4  25223012.678 4  25223004.325 4

  25253667.314 5 132708906.352 5 103409575.139 2  25253680.917 2  25253666.885 2

  20580964.833 8 108153944.323 8  84275917.914 6  20580966.360 6  20580964.744 6
  20580966.519 7
  22729127.515 7 119442408.768 7  93072026.539 4  22729127.837 4  22729126.796 4

  20581616.975 9 108157248.747 9  84278472.923 7  20581622.436 7  20581616.336 7
  20581622.812 7
  23010515.651 7 120921043.529 7  94224211.562 4  23010524.076 4  23010515.271 4

  21353577.967 7 113826633.420 7  88531907.039 6
  21353593.353 6
  23737883.263 6 126937113.010 6  98728903.573 5
  23737887.959 5
  21179932.744 7 113338212.717 7  88151877.568 6
  21179937.730 6
  23533481.792 6 125799967.740 6

  19638110.717 8 104940154.767 8  81620171.402 7
  19638120.248 7
  21851162.397 8 116643078.390 8  90722466.845 7
  21851171.094 7
  22160009.158 7 118250131.681 7  91972402.791 7
  22160017.932 7
  22405540.784 7 119686423.357 7  93089479.936 6
  22405548.117 6
  37162262.488 7 195289103.669 7

  38332860.641 6 201440636.231 6

  39175195.565 7 205866996.651 7

 11 11  1  2 30  0.0000000  0 21G02G31G29G05G30G27G12G21G25G09R14R24
                                R17R01R15R18R02R16S20S33S38
  23464937.752 7 123309276.050 7  96085276.448 4  23464938.575 4  23464937.198 4

  24143614.543 7 126875511.494 7  98864049.257 4  24143622.961 4  24143614.485 4
  24143623.401 6
  21630087.751 8 113666917.185 8  88571670.421 6  21630092.663 6  21630087.649 6
  21630092.972 7
  22672874.057 7 119146919.345 7  92841857.953 5  22672877.629 5  22672874.088 5
  22672878.034 6
  25213696.278 6 132498862.199 6 103245891.514 4  25213704.365 4  25213695.411 4

  25263809.636 5 132762204.601 5 103451106.518 2  25263822.798 2  25263809.292 2

  20581877.406 8 108158739.663 8  84279654.541 6  20581879.005 6  20581877.317 6
  20581879.292 7
  22719390.986 7 119391245.222 7  93032158.852 4  22719391.675 4  22719390.244 4

  20577240.271 8 108134248.670 8  84260550.832 7  20577245.796 7  20577239.637 7
  20577245.970 7
  23019306.117 7 120967234.908 7  94260204.553 5  23019314.668 5  23019305.760 5

  21364092.540 7 113882678.063 7  88575497.170 7
  21364107.093 7
  23743247.169 5 126965805.100 5  98751219.699 5
  23743252.735 5
  21182874.815 7 113353959.086 7  88164124.762 6
  21182881.587 6
  23535463.040 6 125810557.181 6

  19637226.687 8 104935431.572 8  81616497.813 7
  19637236.371 7
  21848871.182 8 116630849.439 8  90712955.457 7
  21848880.024 7
  22154032.392 7 118218241.332 7  91947599.251 7
  22154041.477 7
  22396040.831 7 119635675.397 7  93050008.984 7
  22396048.919 7
  37161833.163 7 195286846.594 7

  38332634.820 7 201439419.458 7

  39174802.161 7 205864949.574 7

 11 11  1  2 30 15.0000000  0 21G02G31G29G05G30G27G12G21G25G09R14R24
                                R17R01R15R18R02R16S20S33S38
  23474396.986 7 123358985.384 7  96124010.992 4  23474398.127 4  23474396.432 4

  24136009.100 7 126835546.075 7  98832907.324 4  24136017.992 4  24136009.047 4
  24136018.134 6
  21628121.206 8 113656581.705 8  88563616.857 6  21628125.874 6  21628121.104 6
  21628126.025 7
  22671232.894 7 119138294.436 7  92835137.266 5  22671236.579 5  22671232.925 5
  22671236.737 7
  25204384.295 6 132449925.890 6 103207759.250 3  25204392.149 3  25204383.415 3

  25273943.950 6 132815456.747 6 103492601.829 2  25273956.483 2  25273943.673 2

  20582810.577 8 108163643.845 8  84283475.998 6  20582812.138 6  20582810.501 6
  20582812.684 7
  22709669.065 7 119340154.396 7  92992347.788 4  22709669.294 4  22709668.323 4

  20572879.443 9 108111332.440 9  84242694.064 7  20572884.855 7  20572878.804 7
  20572885.234 7
  23028100.236 7 121013449.842 7  94296215.915 5  23028109.755 5  23028099.888 5

  21374621.806 7 113938803.661 7  88619150.374 7
  21374636.152 7
  23748603.943 5 126994455.582 5  98773503.493 4
  23748611.161 4
  21185816.117 7 113369703.799 7  88176370.717 6
  21185822.883 6
  23537473.875 6 125821305.484 6

  19636382.116 8 104930917.849 8  81612987.140 7
  19636391.664 7
  21846587.435 7 116618655.017 7  90703470.940 7
  21846595.219 7
  22148077.167 7 118186459.249 7  91922879.916 7
  22148085.401 7
  22386562.683 8 119585045.600 8  93010630.242 7
  22386569.755 7
  37161404.687 7 195284589.249 7

  38332400.019 7 201438201.755 7

  39174418.679 7 205862902.716 7

 11 11  1  2 30 30.0000000  0 21G02G31G29G05G30G27G12G21G25G09R14R24
                                R17R01R15R18R02R16S20S33S38
  23483859.717 7 123408713.176 7  96162759.932 4  23483861.193 4  23483859.190 4

  24128424.075 7 126795684.699 7  98801846.502 4  24128432.712 4  24128424.026 4
  24128432.962 6
  21626157.601 8 113646263.960 8  88555577.109 6  21626162.326 6  21626157.508 6
  21626162.487 7
  22669612.759 7 119129783.684 7  92828505.532 5  22669616.873 5  22669612.799 5
  22669616.795 6
  25195068.509 6 132400970.047 6 103169611.767 3  25195076.171 3  25195067.620 3

  25284069.473 6 132868662.755 6 103534061.255 3  25284082.151 3  25284069.219 3

  20583764.586 8 108168657.536 8  84287382.757 6  20583766.150 6  20583764.510 6
  20583766.818 7
  22699960.450 6 119289136.604 6  92952593.596 3  22699960.825 3  22699959.704 3

  20568534.530 9 108088500.365 9  84224902.868 7  20568539.882 7  20568533.896 7
  20568540.342 7
  23036899.706 7 121059687.826 7  94332245.228 4  23036909.023 4  23036899.362 4

  21385165.719 7 113995009.169 7  88662865.581 7
  21385179.672 7
                                  98795755.023 5
  23753962.032 5
  21188758.485 7 113385446.960 7  88188615.375 6
  21188766.332 6
  23539514.384 6 125832212.819 6

  19635576.431 8 104926613.207 8  81609639.094 7
  19635585.744 7
  21844308.823 8 116606494.906 8  90694013.066 7
  21844317.293 7
  22142140.942 7 118154786.144 7  91898245.334 7
  22142149.986 7
  22377107.505 7 119534533.478 7  92971342.749 7
  22377114.551 7
  37160973.037 7 195282330.408 7

  38332167.155 6 201436984.615 6

  39174027.725 7 205860857.361 7

 11 11  1  2 30 45.0000000  0 21G02G31G29G05G30G27G12G21G25G09R14R24
                                R17R01R15R18R02R16S20S33S38
  23493325.805 7 123458458.981 7  96201522.914 4  23493327.583 4  23493325.291 4

  24120858.498 6 126755927.344 6  98770866.756 4  24120867.393 4  24120858.431 4
  24120867.020 6
  21624197.122 8 113635963.868 8  88547551.101 6  21624202.155 6  21624197.024 6
  21624202.373 7
  22668015.096 7 119121387.176 7  92821962.816 5  22668018.674 5  22668015.136 5
  22668019.436 6
  25185748.734 6 132351994.981 6 103131449.315 3  25185756.465 3  25185747.822 3

  25294184.720 6 132921822.111 6 103575484.210 3  25294198.553 3  25294184.484 3

  20584739.620 8 108173780.342 8  84291374.406 6  20584741.179 6  20584739.558 6
  20584741.704 7
  22690266.486 7 119238192.136 7  92912896.598 4  22690266.307 4  22690265.767 4

  20564205.763 9 108065752.607 9  84207177.372 7  20564211.177 7  20564205.124 7
  20564211.819 7
  23045702.871 7 121105948.636 7  94368292.301 4  23045712.593 4  23045702.505 4

  21395725.048 7 114051293.870 7  88706642.442 7
  21395739.344 7
                                  98817974.071 5
  23759305.277 5
  21191701.140 7 113401187.900 7  88200858.315 6
  21191706.837 6
  23541584.362 5 125843279.007 5

  19634810.003 8 104922517.867 8  81606453.841 8
  19634819.693 8
  21842037.188 8 116594368.939 8  90684581.798 7
  21842045.855 7
  22136225.522 7 118123222.383 7  91873695.803 7
  22136234.930 7
  22367673.573 7 119484140.362 7  92932147.995 7
  22367680.748 7
  37160544.231 7 195280071.302 7

  38331938.208 7 201435767.331 7

  39173637.625 7 205858810.864 7

 11 11  1  2 31  0.0000000  0 21G02G31G29G05G30G27G12G21G25G09R14R24
                                R17R01R15R18R02R16S20S33S38
  23502795.728 7 123508222.647 7  96240299.795 4  23502797.317 4  23502795.219 4

  24113313.128 7 126716274.482 7  98739968.421 4  24113321.990 4  24113313.093 4
  24113321.983 6
  21622240.764 8 113625681.579 8  88539538.977 6  21622245.359 6  21622240.671 6
  21622245.793 7
  22666438.861 7 119113105.184 7  92815509.335 5  22666442.790 5  22666438.901 5
  22666443.361 7
  25176425.352 6 132303000.791 6 103093271.976 3  25176433.445 3  25176424.436 3

  25304291.338 6 132974935.082 6 103616871.062 3  25304305.922 3  25304291.110 3

  20585735.376 8 108179012.734 8  84295451.533 6  20585737.076 6  20585735.314 6
  20585737.072 7
  22680585.987 7 119187321.175 7  92873256.845 4  22680585.691 4  22680585.285 4

  20559893.059 9 108043089.612 9  84189517.930 7  20559898.588 7  20559892.420 7
  20559899.291 7
  23054510.727 7 121152231.905 7  94404356.918 3  23054520.339 3  23054510.338 3

  21406298.236 8 114107658.033 8  88750481.280 7
  21406313.081 7
                                  98840160.913 5
  23764637.603 5
  21194641.416 7 113416926.836 7  88213099.742 6
  21194648.422 6
  23543682.832 5 125854504.177 5

  19634082.746 8 104918632.358 8  81603431.767 7
  19634092.762 7
  21839772.387 7 116582277.277 7  90675177.162 7
  21839780.261 7
  22130331.506 7 118091768.424 7  91849231.646 7
  22130340.250 7
  22358262.519 8 119433866.564 8  92893046.360 7
  22358269.783 7
  37160113.081 6 195277813.934 6

  38331706.882 6 201434549.388 6

  39173243.689 7 205856764.070 7

 11 11  1  2 31 15.0000000  0 21G02G31G29G05G30G27G12G21G25G09R14R24
                                R17R01R15R18R02R16S20S33S38
  23512268.433 7 123558003.699 7  96279090.243 4  23512270.033 4  23512267.910 4

  24105787.340 7 126676726.559 7  98709151.865 4  24105796.281 4  24105787.291 4
  24105795.701 6
  21620287.504 8 113615416.936 8  88531540.595 6  21620291.998 6  21620287.415 6
  21620292.624 7
  22664884.855 7 119104937.910 7  92809145.248 5  22664888.753 5  22664884.890 5
  22664888.732 6
  25167098.477 7 132253987.811 7 103055079.976 3  25167107.080 3  25167097.525 3

  25314389.586 6 133028001.289 6 103658221.637 3  25314403.861 3  25314389.399 3

  20586751.858 8 108184354.835 8  84299614.133 6  20586753.771 6  20586751.796 6
  20586754.033 7
  22670919.232 7 119136524.058 7  92833674.649 3  22670919.116 3  22670918.504 3

  20555596.535 9 108020511.574 9  84171924.694 7  20555602.016 7  20555595.896 7
  20555602.612 7
  23063322.493 6 121198537.271 6  94440438.753 3  23063331.872 3  23063322.109 3

  21416886.618 7 114164100.124 7  88794380.562 7
  21416901.663 7
                                  98862315.541 5
  23769964.118 5
  21197582.148 7 113432663.272 7  88225339.217 6
  21197588.613 6
  23545813.508 5 125865888.145 5

  19633395.316 8 104914956.373 8  81600572.669 7
  19633404.854 7
  21837513.047 7 116570219.002 7  90665798.464 7
  21837521.702 7
  22124457.891 7 118060424.851 7  91824853.360 7
  22124466.402 7
  22348872.936 8 119383712.111 8  92854037.405 7
  22348880.400 7
  37159683.609 7 195275555.207 7

  38331476.424 6 201433332.831 6

  39172859.925 7 205854717.060 7

 11 11  1  2 31 30.0000000  0 20G02G31G29G05G30G27G12G21G25G09R14R17
                                R01R15R18R02R16S20S33S38
  23521745.330 7 123607801.931 7  96317894.078 4  23521746.188 4  23521744.803 4

  24098281.279 6 126637283.483 6  98678416.937 4  24098290.376 4  24098281.257 4
  24098290.090 6
  21618337.236 8 113605169.722 8  88523555.798 6  21618342.102 6  21618337.143 6
  21618342.363 7
  22663352.868 7 119096885.506 7  92802870.669 5  22663356.306 5  22663352.908 5
  22663356.912 6
  25157768.166 7 132204956.086 7 103016873.344 3  25157776.561 3  25157767.210 3

  25324477.809 6 133081020.159 6 103699535.225 2  25324492.834 2  25324477.653 2

  20587789.423 8 108189806.835 8  84303862.334 6  20587791.357 6  20587789.352 6
  20587791.485 7
  22661267.103 7 119085801.005 7  92794150.235 3  22661266.708 3  22661266.361 3

  20551316.454 9 107998018.773 9  84154397.865 7  20551321.765 7  20551315.820 7
  20551322.446 7
  23072137.983 7 121244864.671 7  94476537.813 4  23072147.725 4  23072137.572 4

  21427489.774 7 114220619.891 7  88838340.177 7
  21427504.538 7
  21200522.191 7 113448397.202 7  88237576.714 6
  21200529.164 6
  23547972.445 5 125877431.293 5  97904688.981 4
  23547980.436 4
  19632746.005 8 104911489.356 8  81597876.113 7
  19632756.227 7
  21835261.336 7 116558194.620 7  90656446.203 7
  21835269.042 7
  22118604.251 7 118029191.950 7  91800561.132 7
  22118612.627 7
  22339507.073 7 119333677.303 7  92815121.399 6
  22339513.711 6
  37159254.110 6 195273296.772 6

  38331243.345 7 201432115.286 7

  39172471.793 7 205852670.711 7

 11 11  1  2 31 45.0000000  0 20G02G31G29G05G30G27G12G21G25G09R14R17
                                R01R15R18R02R16S20S33S38
  23531224.485 7 123657616.963 7  96356711.020 4  23531225.550 4  23531223.962 4

  24090795.963 6 126597945.812 6  98647764.128 3  24090804.804 3  24090795.910 3
  24090803.846 6
  21616390.722 8 113594939.960 8  88515584.603 6  21616395.703 6  21616390.633 6
  21616395.510 7
  22661842.157 7 119088948.032 7  92796685.637 5  22661845.765 5  22661842.224 5
  22661846.792 6
  25148434.347 7 132155905.868 7 102978652.337 3  25148442.952 3  25148433.373 3

  25334555.510 5 133133991.797 5 103740812.088 1  25334572.994 1  25334555.323 1

  20588848.064 8 108195368.599 8  84308195.978 6  20588849.929 6  20588848.002 6
  20588850.105 7
  22651629.507 7 119035152.118 7  92754683.500 4  22651629.172 4  22651628.761 4

  20547052.405 9 107975611.512 9  84136937.697 7  20547057.751 7  20547051.766 7
  20547058.570 7
  23080957.741 7 121291213.435 7  94512653.525 3  23080967.665 3  23080957.263 3

  21438107.843 7 114277217.395 7  88882360.438 7
  21438122.225 7
  21203461.931 7 113464128.457 7  88249812.136 6
  21203469.126 6
  23550163.105 5 125889133.109 5  97913790.429 5
  23550170.020 5
  19632136.838 8 104908232.069 8  81595342.658 7
  19632146.594 7
  21833014.578 7 116546203.230 7  90647119.583 7
  21833022.466 7
  22112772.450 7 117998070.436 7  91776355.569 6
  22112780.731 6
  22330162.677 8 119283763.042 8  92776299.172 7
  22330169.221 7
  37158824.659 7 195271037.549 7

  38331012.707 6 201430898.919 6

  39172082.538 7 205850623.822 7

 11 11  1  2 32  0.0000000  0 21G02G31G29G05G30G27G12G21G25G09R14R24
                                R17R01R15R18R02R16S20S33S38
  23540707.281 7 123707448.524 7  96395540.831 4  23540708.242 4  23540706.754 4

  24083330.797 6 126558713.625 6  98617193.551 3  24083338.934 3  24083330.766 3
  24083338.152 6
  21614447.431 8 113584727.510 8  88507626.895 6  21614452.434 6  21614447.351 6
  21614452.294 7
  22660353.761 7 119081125.612 7  92790590.265 5  22660357.287 5  22660353.828 5
  22660357.623 7
  25139096.347 6 132106837.357 6 102940417.057 3  25139105.806 3  25139095.355 3

  25344628.468 5 133186915.302 5 103782051.410 2  25344643.794 2  25344628.312 2

  20589927.486 8 108201040.867 8  84312615.913 6  20589929.441 6  20589927.410 6
  20589929.554 7
  22642005.291 7 118984577.704 7  92715274.809 4  22642005.828 4  22642004.558 4

  20542804.818 9 107953290.034 9  84119544.368 7  20542810.009 7  20542804.184 7
  20542810.618 7
  23089782.033 7 121337583.156 7  94548785.597 4  23089791.518 4  23089781.483 4

  21448739.084 7 114333891.193 7  88926440.099 7
  21448753.761 7
  23785894.744 5 127193884.832 5

  21206401.510 7 113479857.190 7  88262045.614 6
  21206407.931 6
  23552380.062 5 125900993.740 5  97923015.410 5
  23552388.838 5
  19631566.234 8 104905183.891 8  81592971.848 7
  19631575.984 7
  21830774.099 7 116534244.740 7  90637818.531 7
  21830781.981 7
  22106960.834 7 117967060.889 7  91752237.081 7
  22106969.253 7
  22320840.995 7 119233969.595 7  92737570.982 7
  22320848.155 7
  37158393.398 6 195268779.315 6

  38330783.617 7 201429683.123 7

  39171687.488 7 205848577.318 7

 11 11  1  2 32 15.0000000  0 21G02G31G29G05G30G27G12G21G25G09R14R24
                                R17R01R15R18R02R16S20S33S38
  23550192.916 7 123757296.224 7  96434383.207 4  23550193.851 4  23550192.402 4

  24075884.428 6 126519587.107 6  98586705.292 3  24075892.810 3  24075884.357 3
  24075894.127 5
  21612507.194 8 113574532.233 8  88499682.563 6  21612512.206 6  21612507.123 6
  21612512.125 7
  22658887.113 7 119073418.891 7  92784585.059 5  22658890.787 5  22658887.175 5
  22658890.895 7
  25129755.963 6 132057750.660 6 102902167.598 3  25129764.833 3  25129755.007 3

  25354691.457 6 133239790.481 6 103823252.917 3  25354705.312 3  25354691.279 3

  20591027.656 8 108206823.315 8  84317121.713 6  20591029.755 6  20591027.576 6
  20591029.773 7
  22632395.313 7 118934078.257 7  92675924.525 3  22632396.160 3  22632394.585 3

  20538573.518 9 107931054.555 9  84102218.057 7  20538578.669 7  20538572.884 7
  20538579.430 7
  23098610.098 7 121383973.287 7  94584933.561 5  23098619.181 5  23098609.557 5

  21459385.717 7 114390640.732 7  88970578.500 7
  21459400.355 7
  23791189.708 5 127222203.742 5

  21209340.226 7 113495583.060 7  88274276.890 6
  21209346.694 6
  23554629.565 5 125913013.030 5  97932363.730 4
  23554636.433 4
  19631035.046 8 104902345.065 8  81590763.851 7
  19631044.433 7
  21828539.705 7 116522319.131 7  90628543.086 7
  21828548.337 7
  22101171.538 7 117936163.457 7  91728205.772 7
  22101179.124 7
  22311541.825 7 119184297.288 7  92698936.886 5
  22311549.674 5
  37157964.216 7 195266521.977 7

  38330548.602 7 201428465.520 7

  39171298.931 7 205846530.378 7

 11 11  1  2 32 30.0000000  0 21G02G31G29G05G30G27G12G21G25G09R14R24
                                R17R01R15R18R02R16S20S33S38
  23559681.759 7 123807159.988 7  96473238.121 4  23559682.625 4  23559681.254 4

  24068458.987 6 126480566.945 6  98556299.924 3  24068467.238 3  24068458.911 3
  24068468.985 5
  21610570.363 8 113564354.179 8  88491751.664 6  21610575.368 6  21610570.296 6
  21610575.190 7
  22657442.589 7 119065827.738 7  92778669.912 5  22657446.194 5  22657442.656 5
  22657446.891 6
  25120411.517 6 132008646.122 6 102863904.270 3  25120420.425 3  25120410.583 3

  25364744.341 7 133292617.489 7 103864416.978 4  25364757.774 4  25364744.154 4

  20592149.048 8 108212716.395 8  84321713.837 6  20592151.037 6  20592148.968 6
  20592151.066 7
  22622800.126 7 118883654.020 7  92636632.880 4  22622800.818 4  22622799.398 4

  20534358.582 9 107908905.539 9  84084959.118 7  20534363.825 7  20534357.948 7
  20534364.439 7
  23107442.350 7 121430383.499 7  94621097.149 4  23107450.908 4  23107441.814 4

  21470045.676 7 114447466.301 7  89014776.044 7
  21470060.834 7
  23796477.339 4 127250481.133 4

  21212279.019 7 113511305.578 7  88286505.493 6
  21212285.132 6
  23556907.649 6 125925191.187 6

  19630542.614 8 104899715.505 8  81588718.651 8
  19630552.604 8
  21826312.286 7 116510426.247 7  90619293.043 7
  21826319.856 7
  22095402.069 7 117905378.941 7  91704262.356 7
  22095410.733 7
  22302266.856 7 119134746.988 7  92660397.722 6
  22302272.881 6
  37157533.742 7 195264263.245 7

  38330317.540 6 201427247.695 6

  39170910.418 7 205844485.078 7

 11 11  1  2 32 45.0000000  0 21G02G31G29G05G30G27G12G21G25G09R14R24
                                R17R01R15R18R02R16S20S33S38
  23569173.672 7 123857039.388 7  96512105.217 4  23569174.520 4  23569173.176 4

  24061054.350 7 126441653.221 7  98525977.489 4  24061062.043 4  24061054.279 4
  24061063.077 5
  21608636.761 8 113554193.177 8  88483834.038 6  21608641.758 6  21608636.690 6
  21608641.640 7
  22656020.372 7 119058352.473 7  92772845.045 5  22656023.525 5  22656020.430 5
  22656024.074 6
  25111063.582 6 131959523.921 6 102825627.173 3  25111072.892 3  25111062.639 3

  25374787.195 6 133345395.962 6 103905543.285 4  25374800.801 4  25374786.999 4

  20593291.733 8 108218719.486 8  84326391.512 6  20593293.322 6  20593291.649 6
  20593293.453 7
  22613219.028 7 118833305.113 7  92597399.935 5  22613220.027 5  22613218.300 5

  20530160.217 9 107886843.167 9  84067767.683 7  20530165.361 7  20530159.587 7
  20530165.880 7
  23116278.193 7 121476813.639 7  94657276.262 4  23116286.879 4  23116277.688 4

  21480720.472 7 114504366.737 7  89059031.792 7
  21480735.421 7
  23801755.736 5

  21215215.875 7 113527024.431 7  88298731.302 6
  21215222.782 6
  23559214.647 5 125937528.105 5

  19630089.901 8 104897295.685 8  81586836.564 7
  19630099.836 7
  21824090.489 7 116498565.581 7  90610068.091 7
  21824097.902 7
  22089654.089 7 117874707.572 7  91680406.907 7
  22089662.387 7
  22293013.464 7 119085318.865 7  92621953.577 7
  22293020.378 7
  37157106.836 7 195262007.031 7

  38330084.408 7 201426032.644 7

  39170522.188 7 205842438.194 7

 11 11  1  2 33  0.0000000  0 21G02G31G29G05G30G27G12G21G25G09R14R24
                                R17R01R15R18R02R16S20S33S38
  23578667.952 7 123906934.044 7  96550984.166 4  23578669.367 4  23578667.470 4

  24053669.686 6 126402846.082 6  98495738.086 3  24053676.881 3  24053669.642 3
  24053678.212 5
  21606706.128 8 113544049.067 8  88475929.579 6  21606711.296 6  21606706.061 6
  21606711.291 7
  22654619.580 7 119050993.062 7  92767110.476 5  22654623.236 5  22654619.629 5
  22654623.702 7
  25101712.943 6 131910384.160 6 102787336.389 3  25101721.678 3  25101712.027 3

  25384821.052 7 133398125.279 7 103946631.264 4  25384834.693 4  25384820.842 4

  20594454.857 8 108224833.328 8  84331155.588 6  20594456.762 6  20594454.777 6
  20594456.830 7
  22603652.201 7 118783031.650 7  92558225.783 4  22603653.522 4  22603651.473 4

  20525978.404 9 107864867.672 9  84050643.950 7  20525983.535 7  20525977.770 7
  20525984.434 7
  23125117.041 7 121523263.240 7  94693470.513 4  23125126.060 4  23125116.581 4

  21491409.109 7 114561341.924 7  89103345.776 7
  21491423.700 7
  23807028.810 5 127306879.384 5

  21218153.199 7 113542739.704 7  88310954.331 6
  21218160.059 6
  23561550.776 5 125950023.622 5

  19629676.270 8 104895085.051 8  81585117.168 7
  19629685.973 7
  21821874.079 7 116486736.942 7  90600868.057 7
  21821882.506 7
  22083927.094 7 117844149.844 7  91656639.812 7
  22083935.960 7
  22283783.333 7 119036013.119 7  92583604.422 6
  22283789.374 6
  37156674.193 6 195259748.246 6

  38329854.504 7 201424815.640 7

  39170128.144 7 205840391.882 7

 11 11  1  2 33 15.0000000  0 21G02G31G29G05G30G27G12G21G25G09R14R24
                                R17R01R15R18R02R16S20S33S38
  23588165.119 7 123956843.662 7  96589874.803 4  23588167.008 4  23588164.672 4

  24046305.606 6 126364145.806 6  98465581.981 3  24046312.933 3  24046305.571 3
  24046313.904 5
  21604779.123 8 113533921.905 8  88468038.326 6  21604783.883 6  21604779.052 6
  21604784.117 7
  22653241.364 7 119043749.778 7  92761466.388 5  22653245.189 5  22653241.431 5
  22653245.083 6
  25092358.910 6 131861227.151 6 102749032.171 3  25092367.070 3  25092358.012 3

  25394845.266 6 133450805.157 6 103987680.525 3  25394859.195 3  25394845.088 3

  20595639.657 8 108231057.626 8  84336005.528 6  20595641.165 6  20595639.573 6
  20595641.768 7
  22594099.598 7 118732833.958 7  92519110.766 4  22594101.108 4  22594098.865 4

  20521813.255 9 107842979.433 9  84033588.202 7  20521818.362 7  20521812.621 7
  20521818.907 7
  23133959.758 7 121569732.154 7  94729679.860 5  23133969.021 5  23133959.334 5

  21502110.969 8 114618391.136 8  89147717.427 7
  21502125.720 7
  23812294.107 5 127335033.333 5

  21221088.927 7 113558451.436 7  88323174.596 6
  21221094.729 6
  23563919.297 5 125962677.987 5

  19629301.794 8 104893083.583 8  81583560.464 7
  19629311.409 7
  21819664.352 7 116474940.135 7  90591692.773 7
  21819672.396 7
  22078222.617 7 117813706.515 7  91632961.704 7
  22078231.457 7
  22274575.705 7 118986830.674 7  92545351.283 7
  22274583.134 7
  37156244.775 7 195257490.858 7

  38329627.730 6 201423598.116 6

  39169739.685 7 205838345.680 7

 11 11  1  2 33 30.0000000  0 21G02G31G29G05G30G27G12G21G25G09R14R24
                                R17R01R15R18R02R16S20S33S38
  23597665.394 7 124006767.924 7  96628776.831 4  23597667.140 4  23597664.956 4

  24038961.108 6 126325552.774 6  98435509.439 3  24038969.710 3  24038961.130 3
  24038970.258 5
  21602855.275 8 113523811.520 8  88460160.142 6  21602859.556 6  21602855.208 6
  21602859.854 7
  22651885.097 7 119036622.616 7  92755912.787 5  22651889.031 5  22651885.159 5
  22651888.589 7
  25083001.286 6 131812052.950 6 102710714.549 3  25083009.485 3  25083000.428 3

  25404859.263 6 133503435.873 6 104028691.504 2  25404874.444 2  25404859.107 2

  20596844.754 8 108237392.949 8  84340942.335 6  20596846.719 6  20596844.665 6
  20596846.957 7
  22584562.102 7 118682712.264 7  92480054.784 4  22584563.016 4  22584561.378 4

  20517664.607 9 107821178.595 9  84016600.575 7  20517669.769 7  20517663.977 7
  20517670.413 7
  23142806.091 7 121616219.609 7  94765903.667 5  23142815.473 5  23142805.680 5

  21512826.989 7 114675513.147 7  89192145.559 7
  21512841.102 7
  23817552.021 5 127363145.896 5

  21224023.628 7 113574159.498 7  88335391.995 6
  21224031.772 6
  23566316.536 5 125975490.708 5

  19628966.328 8 104891291.549 8  81582166.671 7
  19628976.459 7
  21817460.553 7 116463175.394 7  90582542.394 7
  21817468.606 7
  22072538.754 7 117783377.721 7  91609372.715 7
  22072547.614 7
  22265392.283 7 118937771.828 7  92507194.327 7
  22265399.701 7
  37155815.986 7 195255232.984 7

  38329392.071 6 201422381.883 6

  39169351.964 7 205836299.401 7

 11 11  1  2 33 45.0000000  0 22G02G31G29G18G05G30G27G12G21G25G09R14
                                R24R17R01R15R18R02R16S20S33S38
  23607168.451 7 124056706.561 7  96667690.066 4  23607170.076 4  23607168.009 4

  24031636.820 6 126287067.229 6  98405520.702 3  24031646.498 3  24031636.851 3
  24031646.732 6
  21600934.419 8 113513717.787 8  88452294.935 6  21600938.462 6  21600934.348 6
  21600939.076 7
  25698704.190 5 135047600.779 5

  22650551.021 7 119029612.033 7  92750450.029 5  22650554.833 5  22650551.110 5
  22650554.573 7
  25073640.548 6 131762861.838 6 102672383.773 3  25073648.997 3  25073639.770 3

  25414866.163 6 133556016.667 6 104069663.559 2  25414880.017 2  25414865.971 2

  20598071.650 8 108243838.820 8  84345964.944 6  20598073.379 6  20598071.566 6
  20598073.911 7
  22575039.023 7 118632666.716 7  92441058.175 4  22575039.618 4  22575038.317 4

  20513532.651 9 107799465.545 9  83999681.336 7  20513537.668 7  20513532.017 7
  20513538.598 7
  23151656.217 7 121662725.420 7  94802141.636 4  23151665.659 4  23151655.806 4

  21523556.282 7 114732707.792 7  89236630.168 7
  21523571.625 7
  23822799.689 5 127391217.523 5

  21226958.947 7 113589863.105 7  88347605.898 6
  21226965.347 6
  23568741.436 5 125988461.955 5

  19628669.713 8 104889708.500 8  81580935.402 7
  19628679.943 7
  21815262.921 8 116451441.766 8  90573416.256 7
  21815270.526 7
  22066876.822 7 117753164.205 7  91585873.349 7
  22066885.263 7
  22256231.238 7 118888837.104 7  92469133.921 7
  22256239.652 7
  37155387.811 6 195252974.497 6

  38329163.065 7 201421165.609 7

  39168964.981 7 205834251.994 7

 11 11  1  2 34  0.0000000  0 22G02G31G29G18G05G30G27G12G21G25G09R14
                                R24R17R01R15R18R02R16S20S33S38
  23616674.124 7 124106659.395 7  96706614.350 4  23616675.668 4  23616673.704 4

  24024334.475 6 126248689.531 6  98375616.003 3  24024343.726 3  24024334.492 3
  24024344.091 6
  21599016.495 8 113503640.734 8  88444442.736 6  21599020.950 6  21599016.424 6
  21599021.311 7
  25689565.064 5 134999572.702 5

  22649238.679 7 119022717.889 7  92745078.015 5  22649242.837 5  22649238.759 5
  22649242.713 7
  25064276.684 6 131713654.071 6 102634040.018 3  25064285.285 3  25064275.960 3

  25424862.716 6 133608547.281 6 104110596.573 1  25424875.659 1  25424862.560 1

  20599319.291 8 108250396.192 8  84351074.676 6  20599321.034 6  20599319.211 6
  20599321.665 7
  22565529.847 7 118582697.719 7  92402121.159 4  22565530.579 4  22565529.137 4

  20509417.503 9 107777840.540 9  83982830.708 7  20509422.429 7  20509416.869 7
  20509423.416 7
  23160509.366 6 121709249.262 6  94838393.705 4  23160519.311 4  23160508.960 4

  21534300.290 7 114789974.550 7  89281170.776 7
  21534314.757 7
  23828043.559 5 127419248.052 5

  21229893.166 7 113605562.500 7  88359816.554 6
  21229899.485 6
  23571198.409 5 126001591.948 5

  19628413.062 8 104888334.464 8  81579866.696 7
  19628422.990 7
  21813070.270 7 116439739.670 7  90564314.612 7
  21813078.822 7
  22061235.876 7 117723066.500 7  91562464.068 7
  22061245.591 7
  22247094.501 7 118840026.782 7  92431170.227 6
  22247101.669 6
  37154954.068 6 195250716.956 6

  38328930.277 7 201419948.942 7

  39168569.649 7 205832205.019 7

 11 11  1  2 34 15.0000000  0 21G02G31G29G18G05G30G27G12G21G25G09R14
                                R17R01R15R18R02R16S20S33S38
  23626182.515 7 124156626.140 7  96745549.499 4  23626184.081 4  23626182.109 4

  24017052.188 6 126210419.837 6  98345795.506 4  24017061.322 4  24017052.196 4
  24017061.159 6
  21597102.144 8 113493580.159 8  88436603.364 6  21597106.639 6  21597102.082 6
  21597107.005 7
  25680412.706 5 134951480.648 5

  22647948.843 7 119015940.731 7  92739797.157 5  22647953.180 5  22647948.910 5
  22647953.150 6
  25054909.211 6 131664429.805 6 102595683.418 3  25054918.229 3  25054908.465 3

  25434849.087 6 133661028.128 6 104151491.170 2  25434862.030 2  25434848.859 2

  20600588.349 8 108257064.012 8  84356270.195 6  20600589.807 6  20600588.251 6
  20600590.734 7
  22556036.138 7 118532805.505 7  92363244.014 4  22556036.430 4  22556035.436 4

  20505319.185 9 107756303.837 9  83966048.896 7  20505324.183 7  20505318.546 7
  20505324.918 7
  23169366.226 7 121755790.943 7  94874659.780 3  23169376.088 3  23169365.829 3

  21545056.419 7 114847313.290 7  89325767.566 7
  21545071.472 7
  21232825.961 7 113621257.336 7  88372023.665 6
  21232831.296 6
  23573685.801 5 126014880.442 5

  19628195.012 8 104887169.353 8  81578960.501 7
  19628204.916 7
  21810883.825 7 116428068.203 7  90555236.791 7
  21810891.834 7
  22055617.978 7 117693084.833 7  91539145.038 7
  22055626.740 7
  22237980.708 7 118791341.872 7  92393304.252 6
  22237987.722 6
  37154527.980 7 195248459.902 7

  38328700.525 7 201418732.081 7

  39168183.305 7 205830158.460 7

 11 11  1  2 34 30.0000000  0 21G02G31G29G18G05G30G27G12G21G25G09R14
                                R17R01R15R18R02R16S20S33S38
  23635693.247 7 124206606.428 7  96784495.192 4  23635695.155 4  23635692.845 4

  24009790.340 6 126172258.357 6  98316059.265 3  24009799.639 3  24009790.323 3
  24009799.594 6
  21595190.848 8 113483536.080 8  88428776.828 6  21595195.325 6  21595190.777 6
  21595195.697 7
  25671248.007 5 134903325.169 5

  22646681.653 7 119009280.607 7  92734607.487 5  22646685.730 5  22646681.724 5
  22646685.495 7
  25045539.606 6 131615189.264 6 102557314.125 3  25045548.096 3  25045538.846 3

  25444826.182 7 133713458.115 7 104192345.889 2  25444838.578 2  25444825.941 2

  20601878.379 8 108263843.785 8  84361553.179 6  20601880.157 6  20601878.286 6
  20601880.432 7
  22546556.289 7 118482990.311 7  92324426.848 3  22546556.836 3  22546555.579 3

  20501237.764 9 107734855.777 9  83949336.147 7  20501242.834 7  20501237.125 7
  20501243.698 7
  23178226.432 7 121802349.651 7  94910939.135 5  23178235.991 5  23178226.035 5

  21555826.696 7 114904723.019 7  89370419.458 7
  21555841.605 7
  21235758.211 7 113636947.674 7  88384227.264 6
  21235763.916 6
  23576202.153 5 126028327.292 5

  19628016.228 8 104886213.170 8  81578216.796 7
  19628025.959 7
  21808702.924 8 116416427.934 8  90546183.283 7
  21808711.187 7
  22050021.105 7 117663219.835 7  91515916.753 7
  22050030.460 7
  22228890.330 7 118742782.322 7  92355535.631 7
  22228897.361 7
  37154096.495 7 195246203.943 7

  38328467.853 7 201417515.574 7

  39167794.838 7 205828112.468 7

 11 11  1  2 34 45.0000000  0 21G02G31G29G18G05G30G27G12G21G25G09R14
                                R17R01R15R18R02R16S20S33S38
  23645206.887 7 124256599.782 7  96823451.054 4  23645208.774 4  23645206.481 4

  24002549.250 6 126134205.352 6  98286407.623 4  24002558.647 4  24002549.246 4
  24002557.898 6
  21593282.530 8 113473508.255 8  88420963.001 6  21593286.939 6  21593282.454 6
  21593287.218 7
  25662073.931 5 134855106.260 5

  22645436.809 7 119002737.453 7  92729508.978 5  22645440.361 5  22645436.876 5
  22645440.491 6
  25036166.215 6 131565932.573 6 102518932.256 3  25036175.069 3  25036165.415 3

  25454793.513 6 133765836.889 6 104233160.523 3  25454806.102 3  25454793.281 3

  20603189.521 8 108270735.511 8  84366923.753 6  20603191.540 6  20603189.423 6
  20603191.562 7
  22537091.614 7 118433252.223 7  92285669.800 3  22537091.757 3  22537090.904 3

  20497173.232 9 107713496.474 9  83932692.563 7  20497178.304 7  20497172.598 7
  20497178.953 7
  23187088.918 7 121848925.109 7  94947231.434 4  23187099.024 4  23187088.521 4

  21566610.043 7 114962203.491 7  89415126.476 7
  21566624.588 7
  21238689.303 7 113652633.462 7  88396427.342 6
  21238696.342 6
  23578746.454 4 126041932.564 4

  19627876.188 8 104885466.622 8  81577636.134 7
  19627886.362 7
  21806528.714 8 116404818.084 8  90537153.431 7
  21806535.723 7
  22044446.177 7 117633471.762 7  91492779.419 7
  22044455.048 7
  22219822.911 7 118694348.219 7  92317864.441 7
  22219830.910 7
  37153665.453 7 195243946.813 7

  38328238.566 7 201416298.497 7

  39167407.278 7 205826066.106 7

 11 11  1  2 35  0.0000000  0 20G02G31G29G18G05G30G27G12G21G25G09R14
                                R17R15R18R02R16S20S33S38
  23654722.657 7 124306605.959 7  96862416.918 4  23654724.476 4  23654722.251 4

  23995328.387 7 126096260.994 7  98256840.586 4  23995338.385 4  23995328.379 4
  23995337.812 6
  21591377.370 8 113463496.728 8  88413161.864 6  21591381.693 6  21591377.294 6
  21591382.459 7
  25652884.874 5 134806824.124 5

  22644214.054 7 118996311.395 7  92724501.685 5  22644217.287 5  22644214.147 5
  22644217.718 6
  25026790.335 7 131516659.980 7 102480537.965 3  25026798.685 3  25026789.486 3

  25464750.338 6 133818164.945 6 104273935.816 3  25464764.235 3  25464750.110 3

  20604522.137 8 108277737.701 8  84372380.177 6  20604523.726 6  20604522.044 6
  20604523.878 7
  22527641.624 7 118383591.537 7  92246973.097 4  22527642.132 4  22527640.918 4

  20493125.618 9 107692226.288 9  83916118.416 7  20493130.689 7  20493124.979 7
  20493131.392 7
  23195955.536 7 121895517.006 7  94983536.535 3  23195965.241 3  23195955.076 3

  21577406.078 7 115019753.777 7  89459887.753 7
  21577421.166 7
  21241619.305 7 113668314.537 7  88408623.758 6
  21241625.601 6
  19627775.971 8 104884928.749 8  81577217.777 7
  19627785.643 7
  21804358.711 8 116393238.414 8  90528147.071 7
  21804366.395 7
  22038894.080 7 117603841.350 7  91469733.595 7
  22038902.006 7
  22210780.079 7 118646040.297 7  92280291.338 7
  22210787.544 7
  37153238.266 7 195241690.165 7

  38328006.239 6 201415081.691 6

  39167014.526 7 205824018.624 7

 11 11  1  2 35 15.0000000  0 20G02G31G29G18G05G30G27G12G21G25G09R14
                                R17R15R18R02R16S20S33S38
  23664240.539 7 124356624.775 7  96901392.625 4  23664242.696 4  23664240.137 4

  23988128.926 6 126058425.713 6  98227358.511 4  23988138.371 4  23988128.922 4
  23988138.405 6
  21589475.285 8 113453501.374 8  88405373.319 6  21589479.733 6  21589475.201 6
  21589480.439 7
  25643685.036 5 134758479.060 5

  22643012.995 7 118990003.026 7  92719586.108 5  22643016.773 5  22643013.088 5
  22643017.219 6
  25017411.201 6 131467371.715 6 102442131.513 3  25017419.278 3  25017410.307 3

  25474697.634 5 133870441.684 5 104314671.065 2  25474712.455 2  25474697.420 2

  20605875.603 8 108284851.497 8  84377923.434 6  20605877.309 6  20605875.505 6
  20605877.421 7
  22518206.793 7 118334008.718 7  92208337.044 4  22518207.406 4  22518206.078 4

  20489095.023 9 107671045.589 9  83899613.992 7  20489100.099 7  20489094.384 7
  20489100.806 7
  23204824.796 7 121942125.227 7  95019854.423 4  23204834.691 4  23204824.314 4

  21588215.294 7 115077373.609 7  89504703.085 7
  21588230.565 7
  21244548.689 7 113683990.576 7  88420816.239 6
  21244554.284 6
  19627714.284 8 104884599.600 8  81576961.764 7
  19627723.960 7
  21802195.159 7 116381689.074 7  90519164.217 7
  21802202.804 7
  22033362.487 7 117574328.929 7  91446779.506 7
  22033371.504 7
  22201760.565 7 118597859.009 7  92242816.690 6
  22201767.933 6
  37152812.201 7 195239432.092 7

  38327772.279 6 201413865.198 6

  39166626.014 7 205821972.312 7

 11 11  1  2 35 30.0000000  0 20G02G31G29G18G05G30G12G21G25G09R14R24
                                R17R15R18R02R16S20S33S38
  23673761.520 7 124406655.714 7  96940377.776 4  23673763.169 4  23673761.118 4

  23980950.298 7 126020699.729 7  98197961.604 4  23980958.801 4  23980950.311 4
  23980958.683 6
  21587576.138 8 113443521.990 8  88397597.222 6  21587580.845 6  21587576.049 6
  21587580.935 7
  25634473.468 5 134710070.830 5

  22641835.203 7 118983812.143 7  92714762.092 5  22641838.795 5  22641835.310 5
  22641838.996 7
  25008029.050 6 131418067.812 6 102403712.855 3  25008036.785 3  25008028.156 3

  20607250.710 8 108292076.578 8  84383553.280 6  20607252.172 6  20607250.612 6
  20607252.786 7
  22508786.007 7 118284503.737 7  92169761.698 4  22508787.222 4  22508785.301 4

  20485081.675 9 107649954.385 9  83883179.312 7  20485086.612 7  20485081.036 7
  20485087.441 7
  23213697.361 7 121988749.189 7  95056184.654 4  23213707.303 4  23213696.910 4

  21599037.795 7 115135062.275 7  89549571.918 7
  21599052.720 7
  23859329.880 5 127586565.029 5

  21247477.475 7 113699661.017 7  88433004.358 6
  21247482.423 6
  19627691.913 8 104884479.557 8  81576868.399 7
  19627701.625 7
  21800036.657 7 116370169.193 7  90510204.334 7
  21800045.102 7
  22027854.797 7 117544934.913 7  91423917.538 7
  22027863.231 7
  22192764.922 7 118549805.030 7  92205441.111 7
  22192772.891 7
  37152380.756 7 195237174.584 7

  38327546.806 7 201412649.177 7

  39166233.383 7 205819925.638 7

 11 11  1  2 35 45.0000000  0 21G02G31G29G18G05G30G27G12G21G25G09R14
                                R24R17R15R18R02R16S20S33S38
  23683284.850 7 124456698.665 7  96979372.292 4  23683285.905 4  23683284.461 4

  23973791.765 7 125983083.252 7  98168650.016 4  23973800.650 4  23973791.766 4
  23973800.464 6
  21585680.290 8 113433558.581 8  88389833.569 6  21585684.975 6  21585680.197 6
  21585685.008 7
  25625249.704 5 134661599.950 5 104931139.011 1  25625256.690 1  25625248.953 1

  22640679.280 7 118977738.925 7  92710029.750 5  22640683.194 5  22640679.382 5
  22640683.744 6
  24998643.652 6 131368748.609 6 102365282.303 3  24998651.708 3  24998642.754 3

  25494564.935 6 133974846.157 6 104396045.711 2  25494579.356 2  25494564.099 2

  20608646.785 8 108299413.781 8  84389270.633 6  20608648.454 6  20608646.696 6
  20608649.048 7
  22499380.433 6 118235076.935 6  92131247.221 4  22499381.553 4  22499379.727 4

  20481085.138 9 107628953.133 9  83866814.731 7  20481090.193 7  20481084.499 7
  20481091.038 7
  23222572.710 7 122035388.463 7  95092526.759 4  23222582.566 4  23222572.277 4

  21609873.010 7 115192819.530 7  89594494.181 7
  21609888.023 7
  23864521.011 5 127614309.089 5

  21250404.803 7 113715326.166 7  88445188.364 6
  21250411.539 6
  19627708.077 8 104884568.190 8  81576937.346 7
  19627718.439 7
  21797884.903 7 116358679.408 7  90501267.841 7
  21797892.902 7
  22022368.418 7 117515659.892 7  91401148.131 7
  22022377.517 7
  22183793.020 7 118501878.605 7  92168164.740 7
  22183801.758 7
  37151949.947 7 195234916.277 7

  38327307.584 7 201411432.865 7

  39165847.504 7 205817877.733 7

 11 11  1  2 36  0.0000000  0 22G02G31G29G18G05G30G27G12G21G25G09R14
                                R24R17R01R15R18R02R16S20S33S38
  23692809.901 7 124506753.496 7  97018376.082 4  23692810.886 4  23692809.495 4

  23966654.625 7 125945576.514 7  98139423.883 4  23966663.547 4  23966654.642 4
  23966663.205 6
  21583787.292 8 113423611.122 8  88382082.338 6  21583792.088 6  21583787.194 6
  21583792.154 7
  25616013.788 5 134613066.822 5 104893321.184 1  25616021.099 1  25616012.492 1

  22639546.033 7 118971783.717 7  92705389.370 5  22639549.803 5  22639546.153 5
  22639550.326 6
  24989255.846 6 131319414.386 6 102326840.030 3  24989263.626 3  24989254.979 3

  25504483.474 6 134026966.685 6 104436659.295 3  25504496.382 3  25504482.840 3

  20610064.376 8 108306862.501 8  84395074.780 6  20610066.034 6  20610064.283 6
  20610066.461 7
  22489989.410 5 118185728.602 5  92092793.418 2  22489990.708 2  22489988.704 2

  20477105.753 9 107608042.172 9  83850520.501 7  20477110.994 7  20477105.105 7
  20477111.922 7
  23231450.575 6 122082042.915 6  95128880.718 3  23231460.959 3  23231450.151 3

  21620720.191 7 115250644.349 7  89639469.008 7
  21620735.642 7
  23869701.597 6 127642012.390 6

  21253331.183 7 113730985.973 7  88457368.233 6
  21253336.782 6
  23591915.427 5 126112325.032 5

  19627764.193 8 104884865.813 8  81577168.825 7
  19627774.019 7
  21795737.737 7 116347219.064 7  90492354.255 7
  21795745.652 7
  22016905.008 7 117486504.334 7  91378471.621 7
  22016913.905 7
  22174845.575 7 118454080.533 7  92130988.281 7
  22174854.138 7
  37151522.692 7 195232658.565 7

  38327077.729 7 201410216.843 7

  39165458.455 7 205815831.164 7

 11 11  1  2 36 15.0000000  0 22G02G31G29G18G05G30G27G12G21G25G09R14
                                R24R17R01R15R18R02R16S20S33S38
  23702336.906 7 124556819.534 7  97057388.588 4  23702338.425 4  23702336.504 4

  23959538.825 6 125908179.767 6  98110283.467 4  23959547.424 4  23959538.838 4
  23959547.293 6
  21581897.459 8 113413679.424 8  88374343.388 6  21581902.099 6  21581897.361 6
  21581902.027 7
  25606767.248 4 134564471.647 4 104855454.874 1  25606772.317 1  25606766.032 1

  22638435.251 7 118965946.534 7  92700840.931 5  22638438.972 5  22638435.376 5
  22638439.759 6
  24979864.974 6 131270065.251 6 102288386.138 3  24979872.995 3  24979864.111 3

  25514391.611 7 134079034.742 7 104477232.093 3  25514403.552 3  25514391.178 3

  20611503.077 8 108314423.371 8  84400966.389 6  20611504.877 6  20611502.988 6
  20611505.104 7
  22480614.064 6 118136459.155 6  92054401.081 3  22480615.133 3  22480613.407 3

  20473143.632 9 107587221.633 9  83834296.725 7  20473148.989 7  20473142.980 7
  20473149.779 7
  23240331.399 6 122128712.194 6  95165246.252 2  23240341.954 2  23240331.037 2

  21631581.668 7 115308536.235 7  89684495.924 7
  21631596.066 7
  23874873.617 6 127669674.990 6

  21256256.146 7 113746639.668 7  88469543.355 6
  21256263.105 6
  23594638.792 5 126126879.342 5

  19627858.551 8 104885372.013 8  81577562.529 7
  19627868.713 7
  21793596.169 7 116335788.094 7  90483463.547 7
  21793604.662 7
  22011463.338 7 117457468.779 7  91355888.451 7
  22011472.583 7
  22165922.149 8 118406411.439 8  92093912.225 7
  22165929.840 7
  37151089.964 6 195230400.313 6

  38326844.060 6 201409000.308 6

  39165065.158 7 205813783.975 7

 11 11  1  2 36 30.0000000  0 22G02G31G29G18G05G30G27G12G21G25G09R14
                                R24R17R01R15R18R02R16S20S33S38
  23711866.707 7 124606896.676 7  97096409.752 4  23711867.953 4  23711866.301 4

  23952442.750 6 125870893.117 6  98081228.850 4  23952452.194 4  23952442.763 4
  23952452.673 6
  21580010.501 8 113403763.596 8  88366616.810 6  21580015.137 6  21580010.403 6
  21580015.048 7
  25597507.272 5 134515814.529 5 104817540.302 1  25597512.579 1  25597506.012 1

  22637346.730 7 118960227.590 7  92696384.664 5  22637350.673 5  22637346.846 5
  22637351.410 6
  24970471.169 7 131220701.436 7 102249920.806 3  24970479.413 3  24970470.293 3

  25524289.155 7 134131049.823 7 104517763.433 3  25524301.475 3  25524288.860 3

  20612963.381 8 108322095.721 8  84406944.565 6  20612965.058 6  20612963.292 6
  20612965.313 7
  22471254.301 7 118087268.379 7  92016070.429 5  22471254.842 5  22471253.680 5

  20469198.991 9 107566491.872 9  83818143.688 7  20469204.227 7  20469198.348 7
  20469205.131 7
  23249215.093 7 122175395.742 7  95201622.989 4  23249225.240 4  23249214.745 4

  21642454.382 7 115366494.486 7  89729574.457 7
  21642469.069 7
  23880038.833 5 127697296.928 5

  21259180.478 7 113762287.410 7  88481713.806 6
  21259187.042 6
  23597389.349 5 126141591.442 5

  19627992.155 8 104886086.725 8  81578118.415 7
  19628002.344 7
  21791460.128 7 116324385.422 7  90474594.796 7
  21791467.979 7
  22006045.305 7 117428553.460 7  91333398.786 7
  22006053.620 7
  22157022.629 7 118358871.128 7  92056936.352 6
  22157030.001 6
  37150661.462 7 195228141.950 7

  38326614.791 6 201407783.533 6

  39164676.695 7 205811736.155 7

 11 11  1  2 36 45.0000000  0 20G02G31G29G05G30G27G12G21G25G09R14R24
                                R17R15R18R02R16S20S33S38
  23721397.564 7 124656984.495 7  97135439.240 4  23721399.351 4  23721397.180 4

  23945368.415 6 125833716.804 6  98052260.148 4  23945378.114 4  23945368.455 4
  23945377.764 6
  21578126.574 8 113393863.371 8  88358902.401 6  21578131.291 6  21578126.472 6
  21578131.276 7
  22636280.874 7 118954627.105 7  92692020.726 5  22636284.803 5  22636280.972 5
  22636285.380 7
  24961075.073 6 131171323.094 6 102211444.163 3  24961083.076 3  24961074.197 3

  25534177.266 7 134183011.999 7 104558253.826 3  25534189.069 3  25534177.007 3

  20614444.850 8 108329880.010 8  84413009.941 6  20614446.655 6  20614444.757 6
  20614447.024 7
  22461908.190 8 118038156.704 8  91977801.428 6  22461909.164 6  22461907.573 6

  20465271.455 9 107545853.118 9  83802061.562 7  20465276.800 7  20465270.821 7
  20465277.525 7
  23258101.062 7 122222092.916 7  95238010.258 3  23258110.720 3  23258100.691 3

  21653339.454 7 115424519.235 7  89774704.755 7
  21653354.359 7
  23885197.658 6 127724878.399 6

  21262103.587 7 113777929.640 7  88493880.020 6
  21262109.892 6
  19628165.212 8 104887009.476 8  81578836.104 7
  19628174.864 7
  21789328.968 7 116313011.834 7  90465748.742 7
  21789337.862 7
  22000649.519 7 117399758.945 7  91311003.098 7
  22000657.452 7
  22148147.119 7 118311460.428 7  92020061.231 7
  22148154.619 7
  37150228.206 7 195225883.539 7

  38326383.952 7 201406567.029 7

  39164292.520 7 205809689.379 7

 11 11  1  2 37  0.0000000  0 21G02G31G29G05G30G27G12G21G25G09R14R24
                                R17R01R15R18R02R16S20S33S38
  23730931.156 6 124707082.719 6  97174476.821 4  23730932.613 4  23730930.772 4

  23938315.295 7 125796651.431 7  98023377.913 4  23938324.867 4  23938315.348 4
  23938324.454 6
  21576245.326 8 113383978.571 8  88351199.997 6  21576250.102 6  21576245.224 6
  21576250.180 7
  22635238.106 7 118949145.050 7  92687748.986 5  22635241.663 5  22635238.217 5
  22635242.109 7
  24951675.925 6 131121930.438 6 102172956.366 3  24951684.195 3  24951675.027 3

  25544054.819 6 134234920.688 6 104598702.386 3  25544066.744 3  25544054.506 3

  20615947.880 8 108337776.659 8  84419162.920 6  20615949.567 6  20615947.800 6
  20615949.941 7
  22452577.558 7 117989124.312 7  91939594.297 5  22452578.918 5  22452576.910 5

  20461361.361 9 107525305.633 9  83786050.555 7  20461366.818 7  20461360.727 7
  20461367.381 7
  23266990.135 7 122268803.552 7  95274407.962 4  23267000.015 4  23266989.729 4

  21664237.247 7 115482609.550 7  89819886.037 7
  21664252.143 7
  23890347.651 6 127752419.258 6

  21265025.237 7 113793565.714 7  88506041.420 6
  21265031.936 6
  23602986.408 5 126171483.115 5

  19628376.560 8 104888141.162 8  81579716.305 7
  19628386.824 7
  21787204.131 7 116301666.849 7  90456924.911 7
  21787212.375 7
  21995275.857 8 117371085.703 8  91288701.715 7
  21995284.272 7
  22139295.864 7 118264179.578 7  91983287.167 6
  22139304.061 6
  37149800.961 7 195223623.868 7

  38326152.550 7 201405350.055 7

  39163903.234 7 205807640.930 7

 11 11  1  2 37 15.0000000  0 21G02G31G29G05G30G27G12G21G25G09R14R24
                                R17R01R15R18R02R16S20S33S38
  23740466.316 7 124757191.360 7  97213522.535 4  23740467.615 4  23740465.910 4

  23931283.389 7 125759697.163 7  97994582.257 4  23931292.686 4  23931283.424 4
  23931292.523 6
  21574367.256 8 113374109.272 8  88343509.672 6  21574371.640 6  21574367.154 6
  21574371.840 7
  22634217.066 7 118943781.725 7  92683569.822 5  22634221.203 5  22634217.173 5
  22634221.164 7
  24942274.564 7 131072523.914 7 102134457.746 3  24942282.157 3  24942273.684 3

  25553921.322 6 134286775.418 6 104639108.663 2  25553934.574 2  25553920.969 2

  20617471.724 8 108345786.373 8  84425404.318 7  20617474.046 7  20617471.644 7
  20617474.103 7
  22443262.290 7 117940171.561 7  91901449.164 5  22443263.799 5  22443261.633 5

  20457468.856 9 107504849.812 9  83770110.981 7  20457474.222 7  20457468.217 7
  20457475.027 7
  23275881.494 7 122315527.464 7  95310815.963 4  23275892.069 4  23275881.003 4

  21675146.500 7 115540764.856 7  89865117.809 7
  21675162.425 7
  23895488.608 5 127779919.622 5  99384416.885 5
  23895496.709 5
  21267946.693 7 113809195.205 7  88518197.704 6
  21267952.313 6
  23605826.411 5 126186668.626 5

  19628627.869 8 104889480.851 8  81580758.292 7
  19628637.417 7
  21785084.298 7 116290350.153 7  90448123.045 7
  21785092.531 7
  21989925.945 7 117342534.333 7  91266495.117 7
  21989933.637 7
  22130469.273 7 118217029.319 7  91946614.758 6
  22130477.951 6
  37149368.711 7 195221365.213 7

  38325921.788 7 201404133.494 7

  39163510.813 7 205805594.002 7

 11 11  1  2 37 30.0000000  0 20G02G31G29G05G30G27G12G21G25G09R14R24
                                R17R15R18R02R16S20S33S38
  23750003.649 7 124807309.817 7  97252575.886 4  23750004.584 4  23750003.225 4

  23924272.535 7 125722854.280 7  97965873.414 4  23924281.794 4  23924272.561 4
  23924281.417 6
  21572492.027 8 113364255.411 8  88335831.385 6  21572496.389 6  21572491.925 6
  21572496.831 7
  22633219.543 7 118938537.184 7  92679483.165 5  22633223.137 5  22633219.641 5
  22633223.365 6
  24932869.431 6 131023103.450 6 102095948.270 3  24932877.351 3  24932868.573 3

  25563779.444 5 134338576.372 5 104679472.952 2  25563792.261 2  25563779.060 2

  20619017.435 8 108353907.865 8  84431732.452 7  20619019.698 7  20619017.342 7
  20619019.829 8
  22433962.116 7 117891298.680 7  91863366.259 5  22433963.651 5  22433961.455 5

  20453593.696 9 107484485.876 9  83754243.004 7  20453599.100 7  20453593.057 7
  20453599.783 7
  23284775.435 7 122362264.494 7  95347234.299 4  23284786.131 4  23284774.841 4

  21686069.477 7 115598984.612 7  89910399.732 7
  21686084.053 7
  23900624.128 5 127807379.676 5  99405774.697 5
  23900630.634 5
  21270866.712 7 113824817.968 7  88530348.751 6
  21270871.792 6
  19628917.123 8 104891029.158 8  81581962.528 7
  19628927.209 7
  21782969.395 7 116279061.696 7  90439343.211 7
  21782977.960 7
  21984597.411 7 117314105.220 7  91244383.659 7
  21984606.247 7
  22121667.043 7 118170009.805 7  91910044.023 6
  22121674.697 6
  37148941.300 7 195219105.767 7

  38325688.270 7 201402916.536 7

  39163120.861 7 205803546.338 7

 11 11  1  2 37 45.0000000  0 20G02G31G29G05G30G27G12G21G25G09R14R24
                                R17R15R18R02R16S20S33S38
  23759542.558 7 124857437.960 7  97291636.798 4  23759543.494 4  23759542.129 4

  23917282.487 7 125686123.221 7  97937251.782 4  23917291.937 4  23917282.495 4
  23917291.606 6
  21570619.886 8 113354417.131 8  88328165.218 6  21570624.152 6  21570619.775 6
  21570624.465 7
  22632243.867 7 118933411.371 7  92675489.073 5  22632247.487 5  22632243.960 5
  22632248.026 6
  24923463.067 7 130973669.476 7 102057428.275 3  24923470.166 3  24923462.209 3

  25573626.158 6 134390323.584 6 104719795.445 3  25573639.624 3  25573625.626 3

  20620584.593 8 108362142.108 8  84438148.560 6  20620587.006 6  20620584.513 6
  20620587.067 7
  22424677.005 7 117842505.895 7  91825345.768 5  22424678.703 5  22424676.317 5

  20449736.167 8 107464214.122 8  83738446.861 7  20449741.471 7  20449735.537 7
  20449742.228 7
  23293671.788 7 122409013.908 7  95383662.244 4  23293682.880 4  23293671.145 4

  21697003.245 7 115657268.630 7  89955731.644 7
  21697018.774 7
  23905752.888 6 127834799.412 6  99427101.273 5
  23905758.574 5
  21273784.536 7 113840434.154 7  88542494.713 6
  21273790.337 6
  19629246.305 8 104892785.752 8  81583328.781 7
  19629256.207 7
  21780859.785 7 116267801.093 7  90430585.014 7
  21780868.048 7
  21979292.844 7 117285798.902 7  91222367.650 7
  21979301.037 7
  22112889.538 7 118123122.058 7  91873575.888 7
  22112897.184 7
  37148513.098 7 195216846.595 7

  38325454.718 6 201401700.216 6

  39162729.647 7 205801499.234 7

 11 11  1  2 38  0.0000000  0 20G02G31G29G05G30G27G12G21G25G09R14R24
                                R17R15R18R02R16S20S33S38
  23769083.767 7 124907575.610 7  97330705.119 4  23769084.832 4  23769083.334 4

  23910314.377 7 125649504.193 7  97908717.470 4  23910323.365 4  23910314.369 4
  23910323.631 6
  21568750.715 8 113344594.246 8  88320511.055 6  21568754.835 6  21568750.604 6
  21568755.098 7
  22631290.793 7 118928404.481 7  92671587.625 5  22631294.625 5  22631290.873 5
  22631294.781 6
  24914053.563 7 130924222.127 7 102018897.894 3  24914060.379 3  24914052.714 3

  25583463.232 6 134442016.387 6 104760075.586 3  25583476.402 3  25583462.624 3

  20622173.181 8 108370488.820 8  84444652.137 6  20622175.649 6  20622173.101 6
  20622175.642 7
  22415407.632 6 117793793.553 6  91787388.019 3  22415409.347 3  22415406.939 3

  20445896.088 9 107444034.858 9  83722722.784 7  20445901.452 7  20445895.462 7
  20445902.250 7
  23302570.595 7 122455775.307 7  95420099.416 4  23302581.512 4  23302569.952 4

  21707948.586 7 115715615.632 7  90001112.510 7
  21707964.332 7
  23910872.591 6 127862178.888 6  99448396.469 5
  23910878.138 5
  21276700.815 7 113856043.908 7  88554635.639 6
  21276707.560 6
  19629613.771 8 104894750.281 8  81584856.746 7
  19629623.797 7
  21778755.487 7 116256568.625 7  90421848.741 7
  21778763.490 7
  21974011.446 7 117257615.788 7  91200447.452 7
  21974019.469 7
  22104136.652 7 118076365.439 7  91837209.611 6
  22104144.653 6
  37148080.728 7 195214585.574 7

  38325226.276 7 201400483.714 7

  39162342.731 7 205799451.433 7

 11 11  1  2 38 15.0000000  0 20G02G31G29G05G30G27G12G21G25G09R14R24
                                R17R15R18R02R16S20S33S38
  23778626.508 7 124957722.504 7  97369780.612 4  23778627.767 4  23778626.084 4

  23903367.034 7 125612997.295 7  97880270.572 4  23903376.386 4  23903367.021 4
  23903375.982 6
  21566884.353 8 113334786.619 8  88312868.792 6  21566888.469 6  21566884.237 6
  21566888.791 7
  22630361.281 7 118923517.501 7  92667779.590 5  22630364.719 5  22630361.379 5
  22630364.993 6
  24904641.546 7 130874761.736 7 101980357.310 3  24904648.718 3  24904640.697 3

  25593290.527 6 134493654.363 6 104800312.925 3  25593302.698 3  25593289.915 3

  20623783.091 8 108378948.875 8  84451244.276 6  20623785.916 6  20623783.024 6
  20623785.509 7
  22406153.629 7 117745161.865 7  91749493.011 5  22406155.382 5  22406152.963 5

  20442073.678 9 107423948.399 9  83707071.014 7  20442079.158 7  20442073.048 7
  20442079.941 7
  23311471.893 7 122502548.530 7  95456545.853 3  23311482.227 3  23311471.236 3

  21718906.636 7 115774025.759 7  90046542.457 7
  21718922.171 7
  23915985.172 6 127889518.259 6

  21279616.648 7 113871646.906 7  88566771.292 6
  21279622.233 6
  19630020.409 8 104896923.078 8  81586546.718 7
  19630030.553 7
  21776656.429 8 116245363.652 8  90413133.854 7
  21776664.542 7
  21968752.848 7 117229556.468 7  91178623.598 7
  21968760.920 7
  22095408.623 7 118029741.512 7  91800946.651 6
  22095415.832 6
  37147648.823 7 195212323.835 7

  38324992.008 7 201399203.608 7

  39161950.387 7 205797404.375 7

 11 11  1  2 38 30.0000000  0 20G02G31G29G05G30G27G12G21G25G09R14R24
                                R17R15R18R02R16S20S33S38
  23788170.462 7 125007878.067 7  97408862.885 4  23788172.092 4  23788170.042 4

  23896441.879 6 125576602.763 6  97851911.207 4  23896450.706 4  23896441.910 4
  23896451.780 6
  21565020.897 8 113324994.054 8  88305238.260 6  21565025.149 6  21565020.795 6
  21565025.382 7
  22629453.786 7 118918750.177 7  92664064.837 5  22629457.503 5  22629453.897 5
  22629457.499 6
  24895226.930 7 130825288.351 7 101941806.624 3  24895234.365 3  24895226.076 3

  25603105.969 7 134545237.732 7 104840507.782 3  25603118.661 3  25603105.384 3

  20625414.607 8 108387522.182 8  84457924.899 6  20625417.409 6  20625414.536 6
  20625417.215 8
  22396915.016 6 117696610.914 6  91711660.988 4  22396916.612 4  22396914.368 4

  20438269.090 8 107403954.907 8  83691491.695 7  20438274.572 7  20438268.460 7
  20438275.119 7
  23320374.829 7 122549333.139 7  95493001.167 3  23320384.861 3  23320374.199 3

  21729876.055 7 115832498.127 7  90092020.861 7
  21729891.464 7
  23921090.829 6 127916817.347 6

  21282531.250 7 113887242.763 7  88578901.403 6
  21282537.263 6
  19630465.957 8 104899304.448 8  81588398.895 7
  19630475.914 7
  21774562.271 8 116234185.839 8  90404440.065 7
  21774570.337 7
  21963518.425 7 117201621.266 7  91156896.250 7
  21963525.936 7
  22086706.355 7 117983250.221 7  91764786.780 7
  22086713.105 7
  37147219.198 7 195210061.628 7

  38324757.551 7 201397987.019 7

  39161558.713 7 205795356.882 7

 11 11  1  2 38 45.0000000  0 20G02G31G29G05G30G27G12G21G25G09R14R24
                                R17R15R18R02R16S20S33S38
  23797716.319 7 125058042.043 7  97447951.709 4  23797717.763 4  23797715.917 4

  23889537.709 7 125540320.861 7  97823639.624 4  23889546.311 4  23889537.776 4
  23889547.344 6
  21563160.362 8 113315216.553 8  88297619.457 6  21563164.601 6  21563160.260 6
  21563164.739 7
  22628569.293 7 118914102.702 7  92660443.475 5  22628572.949 5  22628569.382 5
  22628573.681 6
  24885810.169 7 130775802.319 7 101903246.097 3  24885817.745 3  24885809.306 3

  25612911.240 7 134596766.214 7 104880660.020 3  25612923.668 3  25612910.650 3

  20627067.546 8 108396208.044 8  84464692.975 6  20627070.188 6  20627067.475 6
  20627070.044 6
  22387691.633 7 117648141.061 7  91673891.993 4  22387693.242 4  22387690.994 4

  20434482.060 9 107384054.742 9  83675985.102 7  20434487.765 7  20434481.434 7
  20434488.032 7
  23329279.304 7 122596129.205 7  95529465.520 3  23329289.650 3  23329278.665 3

  21740857.054 8 115891032.098 8  90137547.192 7
  21740872.517 7
  23926187.548 6 127944076.441 6

  21285444.314 7 113902831.943 7  88591026.345 6
  21285450.273 6
  19630950.280 8 104901892.775 8  81590412.035 7
  19630959.945 7
  21772473.711 8 116223035.432 8  90395767.626 7
  21772481.444 7
  21958306.542 7 117173810.660 7  91135265.788 7
  21958314.752 7
  22078026.938 7 117936891.748 7  91728730.141 6
  22078035.840 6
  37146790.620 6 195207798.788 6

  38324529.843 6 201396770.824 6

  39161172.061 7 205793308.929 7

 11 11  1  2 39  0.0000000  0 20G02G31G29G05G30G27G12G21G25G09R14R24
                                R17R15R18R02R16S20S33S38
  23807263.496 7 125108214.325 7  97487046.985 4  23807264.910 4  23807263.094 4

  23882654.737 7 125504151.837 7  97795455.954 4  23882663.545 4  23882654.786 4
  23882664.103 6
  21561302.620 8 113305453.711 8  88290012.083 6  21561306.887 6  21561302.513 6
  21561306.935 7
  22627707.727 7 118909574.750 7  92656915.204 5  22627711.294 5  22627707.820 5
  22627711.749 6
  24876391.065 7 130726303.741 7 101864675.787 4  24876398.759 4  24876390.207 4

  25622705.861 6 134648239.335 6 104920769.112 2  25622717.912 2  25622705.325 2

  20628742.132 8 108405007.163 8  84471549.435 6  20628744.310 6  20628742.070 6
  20628744.518 7
  22378483.789 7 117599752.403 7  91636186.227 4  22378485.339 4  22378483.155 4

  20430713.283 8 107364248.120 8  83660551.391 7  20430718.737 7  20430712.657 7
  20430719.218 7
  23338186.550 7 122642935.980 7  95565938.286 3  23338196.541 3  23338185.898 3

  21751849.152 7 115949627.666 7  90183121.423 7
  21751864.570 7
  23931277.763 6 127971295.531 6  99533266.976 5
  23931284.445 5
  21288356.983 7 113918413.760 7  88603145.542 6
  21288360.834 6
  19631473.431 8 104904689.150 8  81592587.005 7
  19631483.348 7
  21770389.578 7 116211911.731 7  90387115.981 7
  21770397.384 7
  21953118.218 7 117146125.157 7  91113732.641 7
  21953126.011 7
  22069373.876 8 117890666.760 8  91692777.256 7
  22069381.905 7
  37146358.572 7 195205536.426 7

  38324297.873 7 201395554.657 7

  39160777.596 7 205791261.303 7

 11 11  1  2 39 15.0000000  0 20G02G31G29G05G30G27G12G21G25G09R14R24
                                R17R15R18R02R16S20S33S38
  23816812.270 7 125158394.639 7  97526148.537 4  23816813.514 4  23816811.873 4

  23875793.745 7 125468095.849 7  97767360.394 4  23875802.515 4  23875793.821 4
  23875803.018 6
  21559447.735 8 113295706.089 8  88282416.596 6  21559451.964 6  21559447.633 6
  21559451.882 7
  22626868.987 7 118905166.751 7  92653480.394 5  22626872.731 5  22626869.058 5
  22626872.771 7
  24866968.932 7 130676792.989 7 101826096.003 3  24866977.287 3  24866968.087 3

  25632489.817 5 134699657.178 5 104960835.354 1  25632501.939 1  25632489.317 1

  20630438.192 8 108413918.995 8  84478493.449 6  20630440.370 6  20630438.121 6
  20630440.590 7
  22369291.407 6 117551444.941 6  91598543.508 3  22369292.833 3  22369290.795 3

  20426961.980 9 107344535.340 9  83645190.810 7  20426967.466 7  20426961.359 7
  20426968.091 7
  23347095.945 6 122689752.999 6  95602418.906 4  23347105.502 4  23347095.288 4

  21762852.023 7 116008283.671 7  90228742.655 6
  21762868.361 6
  23936360.829 6 127998474.744 6  99554406.405 5
  23936367.737 5
  21291266.625 7 113933987.460 7  88615258.434 6
  21291272.481 6
  19632035.953 8 104907693.236 8  81594923.504 7
  19632045.453 7
  21768310.479 7 116200814.447 7  90378484.853 7
  21768318.643 7
  21947953.371 7 117118565.196 7  91092297.161 7
  21947961.654 7
  22060745.366 7 117844575.599 7  91656928.405 7
  22060753.753 7
  37145926.515 7 195203273.162 7

  38324066.239 6 201394338.179 6

  39160391.418 7 205789213.220 7

 11 11  1  2 39 30.0000000  0 20G02G31G29G05G30G27G12G21G25G09R14R24
                                R17R15R18R02R16S20S33S38
  23826363.558 7 125208582.535 7  97565255.984 4  23826363.496 4  23826363.152 4

  23868953.574 7 125432153.162 7  97739353.125 4  23868962.837 4  23868953.663 4
  23868963.480 6
  21557595.426 8 113285973.293 8  88274832.611 6  21557599.796 6  21557595.319 6
  21557600.044 7
  22626053.077 7 118900878.711 7  92650139.071 5  22626056.830 5  22626053.161 5
  22626057.173 7
  24857545.431 7 130627270.035 7 101787506.705 3  24857553.236 3  24857544.609 3

  25642263.784 5 134751018.919 5 105000857.717 1  25642275.323 1  25642263.217 1

  20632155.622 8 108422944.278 8  84485526.020 6  20632158.134 6  20632155.560 6
  20632158.230 7
  22360114.587 7 117503219.355 7  91560964.891 4  22360116.281 4  22360113.966 4

  20423228.460 9 107324916.572 9  83629903.475 7  20423234.122 7  20423227.834 7
  20423234.815 7
  23356006.495 7 122736579.826 7  95638907.171 4  23356016.310 4  23356005.798 4

  21773867.608 7 116066999.889 7  90274410.761 7
  21773883.260 7
  23941436.176 6 128025613.955 6

  21294174.775 7 113949553.820 7  88627365.646 6
  21294181.630 6
  19632636.643 8 104910904.866 8  81597421.469 7
  19632646.503 7
  21766236.882 7 116189743.768 7  90369874.330 7
  21766244.997 7
  21942812.220 7 117091131.142 7  91070959.600 7
  21942820.363 7
  22052142.929 7 117798619.119 7  91621184.427 7
  22052150.131 7
  37145497.046 7 195201010.336 7

  38323836.925 7 201393121.337 7

  39160005.991 7 205787166.079 7

 11 11  1  2 39 45.0000000  0 20G02G31G29G05G30G27G12G21G25G09R14R24
                                R17R15R18R02R16S20S33S38
  23835915.211 7 125258777.719 7  97604369.137 4  23835915.016 4  23835914.800 4

  23862135.657 7 125396324.156 7  97711434.420 4  23862144.360 4  23862135.733 4
  23862144.497 6
  21555746.057 8 113276255.249 8  88267260.159 6  21555750.275 6  21555745.959 6
  21555750.755 7
  22625259.846 7 118896710.819 7  92646891.366 5  22625263.702 5  22625259.935 5
  22625264.054 7
  24848118.867 6 130577735.238 6 101748908.183 3  24848126.961 3  24848118.085 3

  25652026.534 5 134802324.580 5 105040836.281 1  25652038.279 1  25652026.043 1

  20633894.546 8 108432083.454 8  84492647.545 7  20633897.233 7  20633894.479 7
  20633897.177 7
  22350953.076 7 117455075.861 7  91523450.199 4  22350955.294 4  22350952.437 4

  20419513.136 9 107305392.137 9  83614689.651 7  20419518.749 7  20419512.510 7
  20419519.381 7
  23364919.394 6 122783416.237 6  95675402.833 3  23364929.341 3  23364918.719 3

  21784894.448 7 116125775.673 7  90320125.151 7
  21784910.290 7
  23946503.529 6 128052713.208 6

  21297082.555 7 113965112.420 7  88639466.808 6
  21297089.142 6
  19633276.690 8 104914324.068 8  81600080.839 7
  19633286.776 7
  21764167.407 7 116178699.225 7  90361284.248 7
  21764175.808 7
  21937695.373 7 117063823.601 7  91049720.415 7
  21937702.900 7
  22043564.204 7 117752797.568 7  91585545.508 6
  22043572.332 6
  37145067.516 7 195198747.771 7

  38323606.122 6 201391905.978 6

  39159612.891 7 205785118.629 7

 11 11  1  2 40  0.0000000  0 21G02G31G29G05G30G27G12G21G25G09R14R24
                                R17R01R15R18R02R16S20S33S38
  23845468.392 7 125308979.935 7  97643487.763 4  23845468.060 4  23845467.981 4

  23855339.471 7 125360608.961 7  97683604.369 4  23855347.717 4  23855339.564 4
  23855348.472 6
  21553899.680 8 113266551.908 8  88259699.162 6  21553903.678 6  21553899.573 6
  21553904.124 7
  22624489.494 7 118892663.417 7  92643737.561 5  22624493.452 5  22624489.583 5
  22624493.916 7
  24838690.648 6 130528188.805 6 101710300.586 3  24838698.742 3  24838689.902 3

  25661779.518 5 134853573.525 5 105080770.627 1  25661790.329 1  25661778.825 1

  20635655.481 8 108441335.474 8  84499856.813 6  20635657.828 6  20635655.419 6
  20635657.631 6
  22341807.946 7 117407014.620 7  91485999.570 5  22341809.941 5  22341807.289 5

  20415815.752 9 107285962.317 9  83599549.561 7  20415821.330 7  20415815.126 7
  20415821.936 7
  23373834.584 6 122830261.994 6  95711905.862 3  23373844.392 3  23373833.945 3

  21795931.587 7 116184610.468 7  90365885.435 6
  21795947.215 6
  23951563.887 6 128079772.619 6

  21299989.372 7 113980663.267 7  88651561.885 6
  21299995.326 6
  23639017.959 5 126364103.230 5

  19633955.048 8 104917950.686 8  81602901.532 7
  19633965.126 7
  21762103.620 7 116167680.253 7  90352713.921 7
  21762111.399 7
  21932601.129 7 117036642.869 7  91028579.888 7
  21932608.468 7
  22035011.610 7 117707111.403 7  91550012.003 6
  22035019.583 6
  37144634.068 7 195196483.250 7

  38323371.491 7 201390690.459 7

  39159220.953 7 205783070.641 7

 11 11  1  2 40 15.0000000  0 22G02G31G29G18G05G30G27G12G21G25G09R14
                                R24R17R01R15R18R02R16S20S33S38
  23855022.278 7 125359188.985 7  97682611.719 3  23855022.554 3  23855021.867 3

  23848564.634 7 125325007.765 7  97655863.162 4  23848573.021 4  23848564.705 4
  23848573.111 6
  21552055.748 8 113256863.211 8  88252149.566 6  21552059.939 6  21552055.637 6
  21552060.294 7
  25457233.518 5 133778664.163 5

  22623742.657 7 118888736.366 7  92640677.493 5  22623746.414 5  22623742.755 5
  22623746.736 7
  24829259.711 6 130478630.962 6 101671684.130 3  24829268.009 3  24829258.956 3

  25671520.525 6 134904765.916 6 105120661.019 2  25671531.611 2  25671519.810 2

  20637437.544 8 108450701.440 8  84507154.995 6  20637440.037 6  20637437.491 6
  20637440.065 7
  22332678.199 7 117359035.729 7  91448613.175 4  22332680.059 4  22332677.556 4

  20412136.341 8 107266627.434 8  83584483.440 7  20412142.048 7  20412135.711 7
  20412142.358 7
  23382750.731 7 122877116.697 7  95748415.847 4  23382760.401 4  23382750.123 4

  21806979.897 7 116243503.432 7  90411691.004 7
  21806995.595 7
  23956617.173 6 128106792.394 6

  21302893.537 7 113996205.726 7  88663650.479 6
  21302899.868 6
  23642210.597 5 126381176.008 5

  19634672.924 8 104921784.431 8  81605883.336 7
  19634682.899 7
  21760044.232 7 116156687.303 7  90344163.894 7
  21760052.414 7
  21927530.780 7 117009589.536 7  91007538.441 7
  21927539.105 7
  22026484.950 7 117661560.981 7  91514584.006 7
  22026492.691 7
  37144202.279 7 195194218.697 7

  38323142.115 6 201389473.463 6

  39158833.192 7 205781023.967 7

 11 11  1  2 40 30.0000000  0 22G02G31G29G18G05G30G27G12G21G25G09R14
                                R24R17R01R15R18R02R16S20S33S38
  23864578.064 7 125409404.483 7  97721740.696 3  23864578.456 3  23864577.675 3

  23841811.567 7 125289520.801 7  97628210.976 4  23841820.375 4  23841811.620 4
  23841820.447 6
  21550214.970 8 113247189.012 8  88244611.271 6  21550219.070 6  21550214.872 6
  21550219.594 7
  25447791.111 5 133729046.171 5

  22623018.242 7 118884930.006 7  92637711.522 5  22623022.378 5  22623018.344 5
  22623022.365 7
  24819826.560 7 130429061.856 7 101633058.897 3  24819835.175 3  24819825.791 3

  25681251.313 6 134955901.212 6 105160506.830 3  25681262.354 3  25681250.634 3

  20639241.333 8 108460180.639 8  84514541.315 6  20639243.778 6  20639241.284 6
  20639244.081 7
  22323564.141 7 117311139.570 7  91411291.254 4  22323566.043 4  22323563.507 4

  20408475.168 9 107247387.617 9  83569491.392 7  20408480.862 7  20408474.538 7
  20408481.291 7
  23391668.456 6 122923979.790 6  95784932.393 3  23391678.185 3  23391667.880 3

  21818039.167 7 116302454.720 7  90457541.869 7
  21818055.196 7
  23961661.040 6 128133772.412 6

  21305796.614 7 114011740.746 7  88675733.306 6
  21305803.352 6
  23645434.805 5 126398405.622 5

  19635429.124 8 104925824.982 8  81609025.980 7
  19635439.257 7
  21757989.631 7 116145720.071 7  90335633.886 7
  21757997.322 7
  21922485.212 8 116982663.840 8  90986596.254 7
  21922493.076 7
  22017982.923 7 117616146.318 7  91479261.428 7
  22017990.518 7
  37143772.865 7 195191952.766 7

  38322913.338 7 201388257.080 7

  39158443.727 7 205778975.530 7

 11 11  1  2 40 45.0000000  0 22G02G31G29G18G05G30G27G12G21G25G09R14
                                R24R17R01R15R18R02R16S20S33S38
  23874134.946 7 125459626.257 7  97760874.543 3  23874135.686 3  23874134.549 3

  23835080.176 7 125254148.357 7  97600648.044 4  23835089.451 4  23835080.220 4
  23835088.947 6
  21548376.552 8 113237529.322 8  88237084.287 6  21548380.799 6  21548376.450 6
  21548381.476 7
  25438338.674 5 133679369.856 5

  22622316.661 7 118881244.421 7  92634839.660 5  22622321.080 5  22622316.745 5
  22622320.968 7
  24810391.869 7 130379481.833 7 101594425.134 3  24810400.128 3  24810391.042 3

  25690971.294 6 135006979.157 6 105200307.851 2  25690982.230 2  25690970.606 2

  20641067.128 8 108469773.417 8  84522016.072 6  20641069.197 6  20641067.070 6
  20641069.682 6
  22314465.173 7 117263326.371 7  91374034.053 3  22314467.811 3  22314464.516 3

  20404832.110 9 107228243.252 9  83554573.726 7  20404837.773 7  20404831.484 7
  20404838.099 7
  23400588.056 7 122970851.038 7  95821455.252 4  23400598.150 4  23400587.529 4

  21829109.462 7 116361463.134 7  90503437.140 7
  21829124.715 7
  23966700.083 6 128160712.953 6  99680591.002 5
  23966707.279 5
  21308697.255 7 114027266.761 7  88687809.128 6
  21308703.785 6
  23648685.453 5 126415791.555 5

  19636223.356 8 104930073.051 8  81612330.021 7
  19636233.907 7
  21755939.767 7 116134778.028 7  90327123.435 7
  21755947.906 7
  21917463.200 7 116955866.415 7  90965753.830 7
  21917470.918 7
  22009506.491 7 117570868.259 7  91444045.164 6
  22009513.896 6
  37143340.924 7 195189686.535 7

  38322682.535 7 201387040.655 7

  39158051.020 7 205776928.186 7

 11 11  1  2 41  0.0000000  0 22G02G31G29G18G05G30G27G12G21G25G09R14
                                R24R17R01R15R18R02R16S20S33S38
  23883693.107 6 125509853.919 6  97800012.989 3  23883693.753 3  23883692.705 3

  23828370.836 7 125218890.742 7  97573174.575 4  23828380.081 4  23828370.871 4
  23828380.586 6
  21546541.117 8 113227884.035 8  88229568.504 6  21546545.198 6  21546541.024 6
  21546545.991 7
  25428872.127 5 133629635.922 5

  22621638.402 7 118877679.699 7  92632061.990 5  22621642.645 5  22621638.504 5
  22621642.327 7
  24800955.706 6 130329891.037 6 101555782.977 3  24800962.706 3  24800954.870 3

  25700679.919 6 135057999.673 6 105240064.134 3  25700691.267 3  25700679.231 3

  20642914.039 8 108479480.580 8  84529580.177 7  20642916.554 7  20642913.972 7
  20642916.716 7
  22305382.846 7 117215596.481 7  91336841.804 3  22305385.060 3  22305382.158 3

  20401207.140 8 107209194.599 8  83539730.637 7  20401212.857 7  20401206.506 7
  20401213.367 7
  23409509.089 7 123017730.133 7  95857984.201 3  23409519.391 3  23409508.593 3

  21840190.358 7 116420528.384 7  90549376.689 7
  21840205.424 7
  23971729.403 6 128187613.998 6  99701514.056 5
  23971736.942 5
  21311597.675 7 114042784.569 7  88699878.553 6
  21311604.109 6
  23651968.957 5 126433334.116 5

  19637057.543 8 104934527.353 8  81615794.471 7
  19637067.546 7
  21753894.430 7 116123861.204 7  90318632.646 7
  21753902.192 7
  21912465.011 7 116929197.747 7  90945011.563 7
  21912472.865 7
  22001055.978 7 117525727.460 7  91408935.795 6
  22001063.884 6
  37142911.013 6 195187420.145 6

  38322449.385 6 201385823.985 6

  39157659.467 7 205774881.040 7

 11 11  1  2 41 15.0000000  0 21G02G31G29G05G30G27G12G21G25G09R14R24
                                R17R01R15R18R02R16S20S33S38
  23893252.323 7 125560087.250 7  97839155.846 3  23893252.995 3  23893251.930 3

  23821683.693 7 125183748.179 7  97545790.793 4  23821692.649 4  23821683.719 4
  23821692.994 6
  21544708.232 8 113218252.967 8  88222063.812 6  21544712.316 6  21544708.143 6
  21544713.366 7
  22620983.036 7 118874235.693 7  92629378.345 5  22620987.114 5  22620983.120 5
  22620987.556 7
  24791517.105 7 130280289.697 7 101517132.592 3  24791523.920 3  24791516.242 3

  25710377.810 6 135108962.581 6 105279775.583 2  25710388.978 2  25710377.167 2

  20644783.364 8 108489300.669 8  84537231.895 6  20644785.366 6  20644783.302 6
  20644785.628 7
  22296316.503 7 117167950.085 7  91299714.618 4  22296318.662 4  22296315.819 4

  20397600.627 9 107190241.871 9  83524962.313 7  20397606.180 7  20397599.993 7
  20397606.897 7
  23418431.040 7 123064616.779 7  95894519.101 4  23418442.111 4  23418430.549 4

  21851280.447 7 116479650.001 7  90595360.077 7
  21851296.349 7
  23976753.593 6 128214475.424 6  99722406.359 5
  23976760.551 5
  21314496.033 7 114058293.746 7  88711941.267 6
  21314502.019 6
  23655278.691 5 126451032.895 5

  19637929.664 8 104939188.102 8  81619419.494 7
  19637939.452 7
  21751854.255 7 116112969.157 7  90310161.140 7
  21751862.084 7
  21907492.024 7 116902658.194 7  90924369.734 7
  21907500.200 7
  21992631.115 7 117480724.023 7  91373933.250 7
  21992639.020 7
  37142479.734 7 195185154.625 7

  38322220.371 7 201384606.870 7

  39157275.247 7 205772832.041 7

 11 11  1  2 41 30.0000000  0 21G02G31G29G05G30G27G12G21G25G09R14R24
                                R17R01R15R18R02R16S20S33S38
  23902812.259 7 125610325.991 7  97878302.923 3  23902813.257 3  23902811.853 3

  23815018.095 7 125148721.042 7  97518496.977 4  23815027.069 4  23815018.144 4
  23815027.437 6
  21542878.225 8 113208636.310 8  88214570.353 6  21542882.197 6  21542878.136 6
  21542882.952 7
  22620350.543 7 118870912.937 7  92626789.193 5  22620354.532 5  22620350.636 5
  22620354.998 7
  24782076.551 7 130230678.107 7 101478474.232 3  24782083.435 3  24782075.715 3

  25720065.010 6 135159867.793 6 105319442.144 2  25720075.859 2  25720064.416 2

  20646673.680 8 108499235.249 8  84544973.156 6  20646676.089 6  20646673.618 6
  20646676.320 7
  22287265.389 6 117120387.360 6  91262652.717 3  22287267.575 3  22287264.696 3

  20394012.335 9 107171385.375 9  83510268.956 7  20394017.864 7  20394011.705 7
  20394018.566 7
  23427354.616 7 123111510.489 7  95931059.468 3  23427365.869 3  23427354.120 3

  21862381.826 7 116538827.402 7  90641386.777 7
  21862397.964 7
  23981769.358 6 128241297.576 6  99743268.024 5
  23981776.318 5
  21317392.661 7 114073794.184 7  88723997.164 6
  21317398.450 6
  23658616.653 5 126468888.093 5

  19638840.569 8 104944055.906 8  81623205.546 7
  19638850.462 7
  21749818.039 7 116102101.975 7  90301708.947 7
  21749825.740 7
  21902542.581 7 116876248.202 7  90903828.677 7
  21902550.969 7
  21984232.487 7 117435858.080 7  91339037.443 6
  21984240.494 6
  37142048.482 7 195182887.783 7

  38321983.500 7 201383390.948 7

  39156884.164 7 205770785.436 7

 11 11  1  2 41 45.0000000  0 21G02G31G29G05G30G27G12G21G25G09R14R24
                                R17R01R15R18R02R16S20S33S38
  23912373.352 7 125660569.776 7  97917453.921 3  23912374.378 3  23912372.919 3

  23808374.794 7 125113809.461 7  97491293.140 4  23808383.253 4  23808374.829 4
  23808384.222 5
  21541050.971 8 113199033.828 8  88207087.946 6  21541054.882 6  21541050.882 6
  21541055.802 7
  22619741.259 7 118867711.573 7  92624294.686 5  22619745.295 5  22619741.348 5
  22619745.599 7
  24772633.495 7 130181056.466 7 101439808.043 4  24772641.130 4  24772632.615 4

  25729740.335 6 135210714.971 6 105359063.515 2  25729751.739 2  25729739.759 2

  20648585.813 8 108509283.232 8  84552802.545 6  20648588.418 6  20648585.751 6
  20648588.181 7
  22278230.230 7 117072908.408 7  91225656.037 5  22278232.536 5  22278229.515 5

  20390442.373 8 107152625.410 8  83495650.823 7  20390447.922 7  20390441.739 7
  20390448.598 7
  23436279.265 7 123158411.329 7  95967605.543 3  23436290.722 3  23436278.751 3

  21873494.171 7 116598059.824 7  90687456.314 6
  21873509.215 6
  23986777.294 6 128268080.492 6  99764099.231 4
  23986785.391 4
  21320287.016 7 114089285.817 7  88736046.252 5
  21320293.647 5
  23661988.762 5 126486899.408 5

  19639790.100 8 104949130.353 8  81627152.334 8
  19639800.031 8
  21747787.111 7 116091259.396 7  90293275.835 7
  21747794.816 7
  21897617.968 7 116849968.401 7  90883388.846 7
  21897625.515 7
  21975859.593 7 117391130.656 7  91304249.480 6
  21975867.543 6
  37141616.157 7 195180621.527 7

  38321755.317 7 201382174.820 7

  39156495.857 7 205768738.183 7

 11 11  1  2 42  0.0000000  0 22G02G31G29G18G05G30G27G12G21G25G09R14
                                R24R17R01R15R18R02R16S20S33S38
  23921935.083 7 125710818.339 7  97956608.642 3  23921936.576 3  23921934.663 3

  23801753.524 7 125079013.519 7  97464179.494 4  23801761.478 4  23801753.537 4
  23801762.437 6
  21539226.478 8 113189445.341 8  88199616.402 6  21539230.384 6  21539226.394 6
  21539230.859 7
  25390908.427 5

  22619155.687 7 118864631.901 7  92621895.007 5  22619159.370 5  22619155.785 5
  22619159.478 7
  24763188.643 7 130131424.852 7 101401134.108 3  24763196.741 3  24763187.740 3

  25739404.216 6 135261503.664 6 105398639.317 2  25739416.525 2  25739403.675 2

  20650519.555 8 108519445.942 8  84560721.532 6  20650522.498 6  20650519.488 6
  20650522.551 7
  22269211.224 7 117025513.202 7  91188724.491 4  22269213.470 4  22269210.531 4

  20386890.886 8 107133962.187 8  83481108.079 7  20386896.389 7  20386890.252 7
  20386896.854 7
  23445205.654 7 123205318.100 7  96004156.172 4  23445216.658 4  23445205.122 4

  21884616.509 7 116657346.811 7  90733568.308 7
  21884632.169 7
  23991778.591 6 128294823.994 6

  21323179.837 7 114104768.138 7  88748088.084 6
  21323186.620 6
  23665386.682 5 126505066.841 5

  19640778.459 8 104954411.194 8  81631259.653 7
  19640787.985 7
  21745759.998 7 116080440.664 7  90284861.313 7
  21745768.078 7
  21892718.004 7 116823818.889 7  90863050.355 7
  21892725.470 7
  21967511.764 7 117346541.682 7  91269569.162 6
  21967519.769 6
  37141186.791 7 195178356.287 7

  38321521.210 7 201380958.276 7

  39156104.398 7 205766691.349 7

 11 11  1  2 42 15.0000000  0 21G02G31G29G05G30G27G12G21G25G09R14R24
                                R17R01R15R18R02R16S20S33S38
  23931498.349 7 125761071.485 7  97995766.938 3  23931499.552 3  23931497.947 3

  23795153.760 7 125044333.393 7  97437156.048 4  23795161.627 4  23795153.761 4
  23795163.307 5
  21537404.432 8 113179870.983 8  88192155.888 6  21537408.703 6  21537404.348 6
  21537408.886 7
  22618592.382 7 118861673.894 7  92619590.181 5  22618596.424 5  22618592.466 5
  22618596.355 7
  24753742.560 6 130081783.642 6 101362452.696 4  24753750.385 4  24753741.653 4

  25749058.200 5 135312233.363 5 105438169.072 1  25749070.168 1  25749057.624 1

  20652475.260 8 108529722.770 8  84568729.433 7  20652478.185 7  20652475.189 7
  20652478.193 7
  22260208.560 7 116978202.186 7  91151858.646 4  22260210.471 4  22260207.858 4

  20383357.900 8 107115396.013 8  83466640.949 7  20383363.302 7  20383357.266 7
  20383364.058 7
  23454133.261 6 123252230.775 6  96040711.284 3  23454143.908 3  23454132.788 3

  21895748.925 7 116716687.903 7  90779722.389 7
  21895764.381 7
  23996772.464 5 128321528.501 5

  21326072.010 7 114120241.329 7  88760122.794 6
  21326078.401 6
  23668815.338 5 126523390.176 5

  19641805.386 8 104959898.310 8  81635527.411 7
  19641815.450 7
  21743737.203 7 116069646.199 7  90276465.665 7
  21743746.339 7
  21887842.086 7 116797800.236 7  90842813.658 7
  21887849.645 7
  21959190.265 7 117302092.023 7  91234997.227 7
  21959198.925 7
  37140756.058 7 195176090.764 7

  38321291.606 7 201379743.005 7

  39155715.036 7 205764643.285 7

 11 11  1  2 42 30.0000000  0 22G02G31G29G18G05G30G27G12G21G25G09R14
                                R24R17R01R15R18R02R16S20S33S38
  23941062.011 7 125811328.836 7  98034928.539 3  23941063.239 3  23941061.609 3

  23788576.146 7 125009769.306 7  97410222.973 4  23788584.223 4  23788576.154 4
  23788585.922 5
  21535585.281 8 113170310.567 8  88184706.231 6  21535589.540 6  21535585.197 6
  21535589.860 7
  25371865.244 5

  22618052.457 7 118858837.331 7  92617379.891 5  22618056.435 5  22618052.524 5
  22618056.529 7
  24744293.935 6 130032132.951 6 101323763.914 4  24744302.383 4  24744293.014 4

  25758700.617 5 135362904.186 5 105477652.914 1  25758712.448 1  25758700.005 1

  20654452.583 8 108540113.555 8  84576826.009 7  20654455.572 7  20654452.512 7
  20654455.423 7
  22251221.930 7 116930975.975 7  91115058.897 4  22251223.820 4  22251221.220 4

  20379843.385 8 107096927.067 8  83452249.583 7  20379848.759 7  20379842.755 7
  20379849.422 7
  23463062.161 7 123299149.224 7  96077270.911 4  23463072.276 4  23463061.710 4

  21906891.235 7 116776082.515 7  90825918.092 7
  21906906.697 7
  24001758.762 6 128348193.735 6

  21328962.122 7 114135705.087 7  88772150.165 6
  21328968.836 6
  23672271.565 5 126541869.193 5

  19642870.298 8 104965591.247 8  81639955.269 7
  19642880.804 7
  21741720.365 7 116058875.974 7  90268088.846 7
  21741728.537 7
  21882990.366 7 116771912.860 7  90822679.075 7
  21882998.161 7
  21950896.090 8 117257781.881 8  91200533.837 7
  21950904.033 7
  37140323.960 6 195173824.978 6

  38321066.857 7 201378526.093 7

  39155324.354 7 205762594.905 7

 11 11  1  2 42 45.0000000  0 21G02G31G29G05G30G27G12G21G25G09R14R24
                                R17R01R15R18R02R16S20S33S38
  23950626.436 7 125861590.150 7  98074093.189 3  23950627.526 3  23950626.039 3

  23782021.401 7 124975321.865 7  97383380.868 4  23782029.402 4  23782021.409 4
  23782031.107 6
  21533768.351 8 113160763.935 8  88177267.315 6  21533772.786 6  21533768.249 6
  21533773.144 7
  22617536.047 7 118856122.613 7  92615264.605 5  22617539.730 5  22617536.123 5
  22617540.167 7
  24734844.094 6 129982473.030 6 101285067.943 4  24734852.780 4  24734843.178 4

  25768331.606 6 135413515.900 6 105517090.850 2  25768343.594 2  25768331.056 2

  20656451.820 8 108550619.186 8  84585012.266 6  20656454.669 6  20656451.740 6
  20656454.526 7
  22242251.328 7 116883834.310 7  91078325.024 4  22242253.222 4  22242250.644 4

  20376347.330 9 107078555.607 9  83437934.184 7  20376352.791 7  20376346.709 7
  20376353.500 7
  23471991.257 7 123346072.892 7  96113834.675 4  23472001.829 4  23471990.801 4

  21918043.770 7 116835530.252 7  90872155.109 7
  21918059.118 7
  24006738.460 6 128374819.807 6

  21331850.190 7 114151159.498 7  88784170.286 6
  21331856.808 6
  23675757.469 5 126560503.803 5

  19643974.843 8 104971490.424 8  81644543.495 7
  19643984.522 7
  21739706.706 7 116048129.187 7  90259730.272 7
  21739715.052 7
  21878163.728 7 116746157.249 7  90802646.962 7
  21878171.135 7
  21942627.075 7 117213611.711 7  91166179.343 7
  21942634.738 7
  37139893.366 7 195171559.686 7

  38320833.336 6 201377310.333 6

  39154933.047 7 205760547.265 7

 11 11  1  2 43  0.0000000  0 21G02G31G29G05G30G27G12G21G25G09R14R24
                                R17R01R15R18R02R16S20S33S38
  23960191.318 7 125911855.109 7  98113260.737 3  23960192.291 3  23960190.952 3

  23775488.772 7 124940991.068 7  97356629.622 4  23775496.875 4  23775488.764 4
  23775497.864 6
  21531954.245 8 113151231.116 8  88169839.184 6  21531958.488 6  21531954.147 6
  21531958.935 7
  22617042.487 7 118853529.301 7  92613243.844 5  22617046.309 5  22617042.540 5
  22617046.584 7
  24725392.106 6 129932804.065 6 101246364.922 4  24725401.219 4  24725391.217 4

  25777951.353 6 135464067.998 6 105556482.152 2  25777963.445 2  25777950.777 2

  20658472.649 8 108561238.885 8  84593287.391 7  20658475.417 7  20658472.569 7
  20658475.495 7
  22233296.368 7 116836777.610 7  91041657.336 4  22233298.574 4  22233295.680 4

  20372869.852 8 107060281.946 8  83423694.985 7  20372875.442 7  20372869.226 7
  20372876.008 7
  23480921.737 7 123393001.447 7  96150402.260 4  23480932.509 4  23480921.290 4

  21929205.205 7 116895030.199 7  90918432.735 7
  21929221.662 7
  24011711.532 6 128401406.867 6  99867786.632 5
  24011716.017 5
  21334736.048 7 114166604.610 7  88796183.201 5
  21334743.486 5
  23679272.660 5 126579294.320 5

  19645117.152 8 104977595.082 8  81649291.553 7
  19645126.573 7
  21737698.199 7 116037405.288 7  90251389.477 7
  21737706.328 7
  21873361.826 7 116720533.933 7  90782717.764 7
  21873369.633 7
  21934383.648 7 117169582.035 7  91131934.179 7
  21934392.952 7
  37139463.052 7 195169293.825 7

  38320599.430 7 201376094.699 7

  39154545.644 7 205758499.669 7

 11 11  1  2 43 15.0000000  0 20G02G31G29G05G30G27G12G21G25G09R14R24
                                R17R15R18R02R16S20S33S38
  23969756.886 6 125962123.508 6  98152430.926 3  23969757.735 3  23969756.511 3

  23768977.937 6 124906777.194 6  97329969.558 4  23768986.716 4  23768977.906 4
  23768987.688 6
  21530142.627 8 113141712.085 8  88162421.784 6  21530146.842 6  21530142.520 6
  21530147.456 7
  22616572.376 7 118851058.265 7  92611318.431 5  22616576.037 5  22616572.434 5
  22616576.385 7
  24715938.983 6 129883126.365 6 101207655.083 3  24715947.650 3  24715938.103 3

  25787559.319 6 135514560.527 6 105595827.217 2  25787571.929 2  25787558.667 2

  20660515.489 8 108571972.960 8  84601651.498 6  20660518.023 6  20660515.405 6
  20660518.782 7
  22224358.683 7 116789806.085 7  91005056.010 5  22224360.292 5  22224357.999 5

  20369411.388 8 107042106.344 8  83409532.204 7  20369416.705 7  20369410.762 7
  20369417.185 7
  23489853.359 7 123439934.697 7  96186973.499 3  23489863.716 3  23489852.917 3

  21940376.762 7 116954581.866 7  90964750.570 7
  21940392.872 7
  24016675.500 6 128427955.189 6  99888435.330 5
  24016682.217 5
  21337620.888 7 114182039.739 7  88808188.295 5
  21337627.344 5
  19646297.917 8 104983905.272 8  81654199.468 7
  19646307.424 7
  21735693.282 7 116026704.963 7  90243067.049 7
  21735701.490 7
  21868584.483 7 116695043.219 7  90762891.676 7
  21868591.920 7
  21926168.637 8 117125693.028 8  91097798.261 7
  21926176.542 7
  37139028.912 7 195167027.621 7

  38320365.953 7 201374878.405 7

  39154155.226 7 205756450.972 7

 11 11  1  2 43 30.0000000  0 20G02G31G29G05G30G27G12G21G25G09R14R24
                                R17R15R18R02R16S20S33S38
  23979323.278 6 126012394.955 6  98191603.493 3  23979324.566 3  23979322.898 3

  23762488.821 7 124872680.282 7  97303400.600 4  23762498.763 4  23762488.772 4
  23762498.440 6
  21528334.001 8 113132206.683 8  88155014.999 6  21528337.905 6  21528333.903 6
  21528338.409 7
  22616125.425 7 118848709.519 7  92609488.315 5  22616129.058 5  22616125.487 5
  22616129.424 7
  24706483.952 6 129833439.994 6 101168938.515 4  24706492.471 4  24706483.112 4

  25797155.916 6 135564993.087 6 105635125.534 3  25797169.261 3  25797155.313 3

  20662579.982 8 108582821.311 8  84610104.638 7  20662582.513 7  20662579.898 7
  20662582.808 7
  22215436.421 7 116742919.666 7  90968520.972 5  22215438.162 5  22215435.742 5

  20365971.267 9 107024028.962 9  83395445.953 7  20365976.574 7  20365970.641 7
  20365977.354 7
  23498784.643 6 123486872.086 6  96223548.049 4  23498795.670 4  23498784.183 4

  21951558.699 7 117014185.107 7  91011108.547 7
  21951574.861 7
  24021633.424 6 128454464.500 6  99909053.743 5
  24021637.439 5
  21340503.498 7 114197464.982 7  88820185.714 6
  21340509.123 6
  19647517.132 8 104990421.144 8  81659267.366 7
  19647527.328 7
  21733693.345 7 116016027.339 7  90234762.214 7
  21733701.196 7
  21863832.573 7 116669685.506 7  90743169.043 7
  21863840.968 7
  21917978.387 7 117081945.223 7  91063772.323 7
  21917986.657 7
  37138599.001 7 195164761.747 7

  38320136.657 7 201373661.872 7

  39153768.543 7 205754404.078 7

 11 11  1  2 43 45.0000000  0 21G02G31G29G05G30G27G12G21G25G09R14R24
                                R17R01R15R18R02R16S20S33S38
  23988890.001 6 126062669.282 6  98230778.289 3  23988891.848 3  23988889.639 3

  23756022.767 6 124838700.626 6  97276923.068 4  23756032.984 4  23756022.705 4
  23756032.543 6
  21526527.714 8 113122714.883 8  88147618.801 6  21526531.651 6  21526527.612 6
  21526532.495 7
  22615701.586 7 118846482.866 7  92607753.304 5  22615705.480 5  22615701.657 5
  22615705.693 7
  24697026.992 7 129783745.313 7 101130215.441 4  24697035.615 4  24697026.156 4

  25806742.045 6 135615365.228 6 105674376.678 3  25806754.993 3  25806741.500 3

  20664666.191 8 108593784.015 8  84618646.844 6  20664668.865 6  20664666.107 6
  20664668.883 7
  22206530.627 8 116696118.770 8  90932052.577 6  22206532.537 6  22206529.952 6

  20362549.979 8 107006050.102 8  83381436.465 7  20362555.277 7  20362549.353 7
  20362555.849 7
  23507716.823 7 123533813.111 7  96260125.347 4  23507728.166 4  23507716.350 4

  21962749.576 7 117073838.883 7  91057505.830 7
  21962765.653 7
  24026582.729 6 128480934.829 6  99929641.800 5
  24026587.423 5
  21343384.520 7 114212880.189 7  88832175.324 6
  21343389.993 6
  23689991.964 4 126636583.012 4

  19648774.959 8 104997141.715 8  81664494.459 7
  19648784.783 7
  21731696.812 7 116005372.525 7  90226475.169 7
  21731705.532 7
  21859105.198 7 116644461.302 7  90723550.266 7
  21859113.904 7
  21909815.433 7 117038338.680 7  91029856.103 6
  21909822.940 6
  37138170.906 7 195162495.267 7

  38319906.538 6 201372445.478 6

  39153375.353 7 205752355.294 7

 11 11  1  2 44  0.0000000  0 21G02G31G29G05G30G27G12G21G25G09R14R24
                                R17R01R15R18R02R16S20S33S38
  23998457.534 6 126112946.131 6  98269955.084 3  23998459.251 3  23998457.145 3

  23749578.988 6 124804838.678 6  97250537.154 3  23749588.804 3  23749578.921 3
  23749587.405 5
  21524724.165 8 113113236.780 8  88140233.295 6  21524728.246 6  21524724.063 6
  21524728.779 7
  22615301.204 7 118844378.966 7  92606113.996 5  22615305.234 5  22615301.275 5
  22615304.800 7
  24687569.178 7 129734042.684 7 101091486.172 4  24687577.194 4  24687568.329 4

  25816315.885 6 135665677.062 6 105713580.848 2  25816329.251 2  25816315.420 2

  20666774.008 8 108604861.866 8  84627278.893 6  20666777.012 6  20666773.924 6
  20666777.185 7
  22197640.906 7 116649403.673 7  90895651.157 5  22197643.470 5  22197640.227 5

  20359147.493 8 106988170.219 8  83367504.112 7  20359152.940 7  20359146.867 7
  20359153.671 7
  23516650.277 6 123580757.592 6  96296705.298 3  23516661.421 3  23516649.768 3

  21973950.397 7 117133543.139 7  91103942.339 7
  21973966.338 7
  24031525.514 6 128507366.750 6  99950199.939 5
  24031530.494 5
  21346263.287 7 114228285.589 7  88844157.301 6
  21346268.913 6
  23693624.417 4 126655994.260 4

  19650070.642 8 105004067.478 8  81669881.153 7
  19650080.953 7
  21729704.804 7 115994740.578 7  90218205.908 7
  21729713.672 7
  21854403.606 7 116619371.127 7  90704035.702 7
  21854411.654 7
  21901678.969 7 116994874.564 7  90996050.773 6
  21901686.384 6
  37137738.696 6 195160229.724 6

  38319674.305 7 201371228.999 7

  39152981.774 7 205750307.566 7

 11 11  1  2 44 15.0000000  0 21G02G31G29G05G30G27G12G21G25G09R14R24
                                R17R01R15R18R02R16S20S33S38
  24008025.238 6 126163225.359 6  98309133.694 3  24008027.088 3  24008024.836 3

  23743158.030 7 124771094.731 7  97224243.437 4  23743167.187 4  23743157.972 4
  23743166.435 6
  21522923.259 8 113103772.066 8  88132858.222 6  21522927.447 6  21522923.161 6
  21522927.335 7
  22614923.636 7 118842397.178 7  92604569.790 5  22614927.860 5  22614923.716 5
  22614927.992 6
  24678109.832 7 129684332.163 7 101052750.719 3  24678117.200 3  24678108.956 3

  25825878.511 5 135715928.377 5 105752737.989 2  25825891.736 2  25825878.087 2

  20668904.017 8 108616054.519 8  84636000.460 6  20668906.966 6  20668903.933 6
  20668906.800 7
  22188767.816 7 116602774.626 7  90859316.692 4  22188770.537 4  22188767.132 4

  20355763.926 8 106970389.411 8  83353648.955 7  20355769.326 7  20355763.300 7
  20355770.061 7
  23525584.184 7 123627705.590 7  96333288.043 4  23525595.701 4  23525583.657 4

  21985160.410 7 117193297.093 7  91150417.536 7
  21985176.802 7
  24036460.727 6 128533759.998 6  99970728.065 5
  24036467.894 5
  21349139.375 7 114243680.595 7  88856131.232 5
  21349146.255 5
  23697282.828 5 126675560.471 5

  19651405.492 8 105011198.953 8  81675427.845 7
  19651415.791 7
  21727717.725 7 115984130.414 7  90209953.512 7
  21727726.112 7
  21849725.815 7 116594415.269 7  90684625.654 7
  21849734.953 7
  21893568.647 7 116951553.265 7  90962356.652 7
  21893576.303 7
  37137305.329 6 195157965.435 6

  38319444.119 6 201370012.284 6

  39152600.425 7 205748260.871 7

 11 11  1  2 44 30.0000000  0 21G02G31G29G05G30G27G12G21G25G09R14R24
                                R17R01R15R18R02R16S20S33S38
  24017593.566 6 126213506.574 6  98348313.874 3  24017594.916 3  24017593.128 3

  23736759.118 7 124737468.217 7  97198040.925 4  23736768.358 4  23736759.065 4
  23736767.818 6
  21521124.693 8 113094320.690 8  88125493.551 6  21521129.166 6  21521124.595 6
  21521128.865 7
  22614569.892 7 118840537.948 7  92603121.062 5  22614573.962 5  22614569.963 5
  22614574.098 7
  24668648.543 7 129634613.968 7 101014009.306 3  24668656.127 3  24668647.663 3

  25835428.681 5 135766118.751 5 105791847.583 2  25835442.580 2  25835428.239 2

  20671055.666 8 108627361.646 8  84644811.088 6  20671058.814 6  20671055.577 6
  20671058.987 7
  22179910.701 6 116556231.924 6  90823049.627 3  22179913.683 3  22179909.986 3

  20352399.288 8 106952707.878 8  83339871.150 7  20352404.587 7  20352398.662 7
  20352405.392 7
  23534519.411 6 123674656.016 6  96369872.620 4  23534530.732 4  23534518.879 4

  21996379.668 7 117253099.864 7  91196930.698 7
  21996395.069 7
  24041389.990 6 128560114.686 6  99991226.204 5
  24041397.892 5
  21352015.002 7 114259065.431 7  88868097.218 5
  21352020.902 5
  23700974.058 5 126695281.446 5

  19652777.815 8 105018534.667 8  81681133.402 8
  19652788.254 8
  21725734.451 7 115973542.768 7  90201718.651 7
  21725742.181 7
  21845074.842 7 116569594.174 7  90665320.389 7
  21845083.799 7
  21885485.510 7 116908374.511 7  90928773.338 6
  21885493.467 6
  37136876.518 7 195155701.535 7

  38319209.506 7 201368796.734 7

  39152206.587 7 205746211.704 7

 11 11  1  2 44 45.0000000  0 21G02G31G29G05G30G27G12G21G25G09R14R24
                                R17R01R15R18R02R16S20S33S38
  24027161.712 6 126263789.455 6  98387495.359 2  24027163.276 2  24027161.230 2

  23730382.100 7 124703960.047 7  97171930.702 4  23730391.779 4  23730382.033 4
  23730391.434 6
  21519328.598 8 113084882.658 8  88118139.253 6  21519333.282 6  21519328.500 6
  21519333.080 7
  22614239.365 7 118838801.654 7  92601768.227 5  22614243.469 5  22614239.432 5
  22614243.301 7
  24659186.339 6 129584888.291 6 100975262.056 3  24659193.552 3  24659185.468 3

  25844968.547 5 135816247.542 5 105830908.982 2  25844981.624 2  25844968.132 2

  20673229.293 8 108638783.798 8  84653711.446 7  20673232.519 7  20673229.204 7
  20673232.547 7
  22171070.766 7 116509775.719 7  90786849.801 5  22171073.710 5  22171070.073 5

  20349053.621 8 106935125.961 8  83326170.973 7  20349058.870 7  20349052.995 7
  20349059.513 7
  23543453.728 6 123721609.041 6  96406459.296 4  23543466.026 4  23543453.192 4

  22007607.640 7 117312951.365 7  91243481.741 7
  22007623.496 7
  24046311.303 6 128586430.915 6 100011694.362 5
  24046317.120 5
  21354887.886 7 114274439.636 7  88880054.944 5
  21354893.833 5
  23704687.600 5 126715157.034 5

  19654189.607 8 105026074.926 8  81686998.045 7
  19654199.334 7
  21723754.477 7 115962977.091 7  90193500.962 7
  21723763.139 7
  21840448.949 7 116544908.234 7  90646120.215 7
  21840457.756 7
  21877429.237 8 116865339.052 8  90895301.452 7
  21877436.867 7
  37136447.667 6 195153436.666 6

  38318976.960 7 201367580.323 7

  39151818.973 7 205744163.529 7

 11 11  1  2 45  0.0000000  0 21G02G31G29G05G30G27G12G21G25G09R14R24
                                R17R01R15R18R02R16S20S33S38
  24036730.780 6 126314073.846 6  98426677.984 3  24036732.218 3  24036730.289 3

  23724028.660 7 124670570.533 7  97145912.973 3  23724037.519 3  23724028.571 3
  23724037.723 5
  21517535.161 8 113075457.988 8  88110795.391 6  21517539.607 6  21517535.059 6
  21517539.630 7
  22613932.426 7 118837188.098 7  92600510.910 5  22613936.336 5  22613932.493 5
  22613936.422 6
  24649722.413 6 129535155.572 6 100936509.343 4  24649729.725 4  24649721.564 4

  25854495.990 6 135866315.578 6 105869923.264 2  25854509.100 2  25854495.561 2

  20675424.844 8 108650320.745 8  84662701.158 6  20675427.991 6  20675424.755 6
  20675427.975 7
  22162247.244 7 116463406.272 7  90750717.749 4  22162250.036 4  22162246.560 4

  20345726.824 8 106917644.001 8  83312548.686 7  20345732.121 7  20345726.198 7
  20345732.796 7
  23552389.420 6 123768564.376 6  96443047.811 4  23552401.585 4  23552388.911 4

  22018844.140 7 117372850.815 7  91290070.072 7
  22018860.340 7
  24051223.974 6 128612708.731 6 100032132.729 5
  24051231.385 5
  21357758.663 7 114289803.578 7  88892004.689 5
  21357764.569 5
  23708436.191 5 126735187.308 5

  19655638.841 8 105033819.514 8  81693021.590 7
  19655648.675 7
  21721779.636 8 115952433.150 8  90185300.114 8
  21721787.892 8
  21835848.285 7 116520358.127 7  90627025.768 7
  21835856.630 7
  21869400.064 8 116822447.141 8  90861941.050 7
  21869407.639 7
  37136019.018 7 195151172.957 7

  38318746.837 7 201366363.671 7

  39151430.626 7 205742115.348 7

 11 11  1  2 45 15.0000000  0 21G02G31G29G05G30G27G12G21G25G09R14R24
                                R17R01R15R18R02R16S20S33S38
  24046299.893 6 126364359.389 6  98465861.527 3  24046301.128 3  24046299.402 3

  23717696.948 6 124637299.295 6  97119987.353 4  23717705.630 4  23717696.868 4
  23717706.722 6
  21515744.246 8 113066046.444 8  88103461.742 6  21515748.280 6  21515744.153 6
  21515748.529 7
  22613648.526 7 118835697.290 7  92599349.324 5  22613652.513 5  22613648.606 5
  22613653.036 7
  24640256.773 6 129485415.817 6 100897751.144 3  24640264.611 3  24640255.937 3

  25864010.959 5 135916321.292 5 105908888.908 1  25864024.418 1  25864010.593 1

  20677642.170 8 108661972.615 8  84671780.432 7  20677645.295 7  20677642.086 7
  20677644.975 7
  22153439.915 7 116417123.391 7  90714653.044 3  22153442.778 3  22153439.209 3

  20342419.079 8 106900262.121 8  83299004.384 7  20342424.498 7  20342418.453 7
  20342425.107 7
  23561325.401 7 123815521.356 7  96479637.608 4  23561337.299 4  23561324.941 4

  22030089.875 7 117432797.724 7  91336695.347 7
  22030106.458 7
  24056132.223 6 128638948.122 6 100052541.169 5
  24056140.025 5
  21360627.735 7 114305156.530 7  88903945.896 5
  21360633.948 5
  23712214.356 5 126755371.827 5

  19657126.263 8 105041768.497 8  81699204.132 7
  19657136.053 7
  21719808.801 7 115941910.324 7  90177115.609 7
  21719816.679 7
  21831272.995 7 116495944.088 7  90608037.085 7
  21831281.922 7
  21861397.576 8 116779699.593 8  90828693.212 7
  21861404.878 7
  37135579.801 7 195148907.812 7

  38318515.135 7 201365146.469 7

  39151040.218 7 205740065.993 7

